PlaceID,FacilityName,Latitude,Longitude,StreetAddress,City,County,ZipCode,RegionalWaterBoard,OperationalYear,ShutdownYear,DataSource,CADDID,Year,MilkCows,DryCows,OldHeifers,YoungHeifers,OldCalves,YoungCalves,BeefCattle,TotalHerdSize,MilkCowsHerdSizeRefCode,NonMilkingCattleHerdSizeRefCode,LabeledAsDairy
201050,O & S Holsteins,33.8202,-117.0346,1970 N Warren Road,San Jacinto,Riverside,92582,8,#N/A,#N/A,#N/A,10001,2023,1175,200,288,212,390,185,0,2450,1,1,1
201891,PH Ranch #3,37.452,-120.5881,11586 North Shaffer Road,Winton,Merced,95388,5S,#N/A,#N/A,#N/A,10002,2023,450,0,25,0,0,0,0,475,1,1,1
202297,3 Brand Cattle Company,35.4996,-119.1058,34377 Lerdo Hwy,Bakersfield,Kern,93308,5F,#N/A,#N/A,#N/A,11793,2023,0,0,0,0,0,0,35982,35982,1,1,0
202572,J & J DeRaadt Dairy,37.7319,-120.8095,6460 Smith Road,Oakdale,Stanislaus,95361,5S,#N/A,#N/A,#N/A,10003,2023,950,140,200,400,250,0,0,1940,1,1,1
202610,4-H Calf Ranch,33.9973,-117.6033,9200 Edison Avenue,Ontario,San Bernardino,91762,8,#N/A,#N/A,#N/A,10004,2023,0,0,0,0,3675,825,0,4500,1,1,0
203875,Former E & D Azevedo Dairy,37.0437,-120.2296,17493 Avenue 20,Madera,Madera,93637,5F,#N/A,#N/A,#N/A,10005,2023,0,0,0,0,0,0,0,0,2a,2e,0
203907,A & M De Sousa Dairy,37.4656,-120.9558,3030 South Central Avenue,Turlock,Stanislaus,95380,5S,#N/A,#N/A,#N/A,10006,2023,1212,275,210,430,280,30,0,2437,1,1,1
203909,A & L Dairy,36.2251,-119.4708,23863 Road 48,Tulare,Tulare,93274,5F,#N/A,#N/A,#N/A,10007,2023,497,45,97,0,0,0,0,639,1,1,1
203928,M4 Farms Feedlot,36.064,-119.3657,9225 Avenue 152,Tipton,Tulare,93272,5F,#N/A,#N/A,#N/A,10008,2023,0,0,722,2006,0,0,0,2728,1,1,0
203931,"J and A Dairy, LLC",36.2344,-119.7801,16283 18th Avenue,Lemoore,Kings,93245,5F,#N/A,#N/A,#N/A,10009,2023,585,58,390,175,0,0,0,1208,1,1,1
203936,Silveira Dairy,37.062,-120.3441,11277 Avenue 21 1/2,Chowchilla,Madera,93610,5F,#N/A,#N/A,#N/A,10010,2023,1338,100,439,381,192,0,0,2450,1,1,1
203938,A.T.O. Dairy,36.4573,-119.826,19249 South Fruit Avenue,Riverdale,Fresno,93656,5F,#N/A,#N/A,#N/A,10011,2023,850,100,350,300,150,0,0,1750,1,1,1
203994,former A O DAIRY,36.63447167,-119.8625206,6949 South Brawley Avenue,Fresno,Fresno,93706,5F,#N/A,#N/A,#N/A,11902,2023,0,0,0,0,0,0,0,0,2a,2e,0
204110,Daniel Brazil Dairy,36.3508,-119.7858,18280 Fairfax Avenue,Lemoore,Kings,93245,5F,#N/A,#N/A,#N/A,10012,2023,500,75,105,175,70,5,0,930,1,1,1
204133,River Valley Dairy,36.4061,-119.8858,22700 South Cornelia Avenue,Riverdale,Fresno,93656,5F,#N/A,#N/A,#N/A,10013,2023,1348,156,565,660,337,0,0,3066,1,1,1
204453,Adams Dairy,36.4921,-119.6847,16661 South Fowler Avenue,Selma,Fresno,93662,5F,#N/A,#N/A,#N/A,10014,2023,60,10,20,20,15,15,0,140,1,1,1
204511,Adriano Nunes & Son Dairy Farming,36.1286,-119.503,18675 Road 32,Tulare,Tulare,93274,5F,#N/A,#N/A,#N/A,10015,2023,790,144,295,300,140,109,0,1778,1,1,1
204805,AJB Ranch Dairy,35.3583,-119.3208,28128 Stockdale Hwy,Bakersfield,Kern,93314,5F,#N/A,#N/A,#N/A,10016,2023,3995,534,983,788,772,0,0,7072,1,1,1
204810,AJF Dairy,37.0904,-120.328,23435 Road 12,Chowchilla,Madera,93610,5F,#N/A,#N/A,#N/A,10017,2023,780,90,232,0,0,120,0,1222,1,1,1
204863,Alamo Dairy,37.5076,-121.013,1500 Fulkerth Road,Crows Landing,Stanislaus,95313,5S,#N/A,#N/A,#N/A,10018,2023,1400,600,1200,1200,600,0,0,5000,1,1,1
204886,Legend Dairy #1,33.9884,-117.6465,7233 Eucalyptus Avenue,Ontario,San Bernardino,91762,8,#N/A,#N/A,#N/A,10019,2023,0,0,0,0,0,0,0,0,2a,2a,0
204887,Huizenga Heifer Ranch,33.9934,-117.6506,14281 Euclid Avenue,Chino,San Bernardino,91762,8,#N/A,#N/A,#N/A,10020,2023,0,0,0,0,0,0,0,0,2a,2c,0
204896,Albert Mendes Dairy,37.4852,-121.0086,1100 Ruble Road,Crows Landing,Stanislaus,95313,5S,2023,NaN,DDRDP,10021,2023,1400,300,200,0,300,0,0,2200,1,1,1
204958,Gordon Dairy #7,33.9958,-117.6269,8185 Edison Avenue,Ontario,San Bernardino,91762,8,#N/A,#N/A,#N/A,10022,2023,0,0,124,126,0,0,0,250,1,1,0
204959,TiVa Dairy #2,33.9905,-117.6083,9031 Eucalyptus Avenue,Ontario,San Bernardino,91762,8,#N/A,#N/A,#N/A,10023,2023,0,0,0,0,0,0,0,0,2a,2e,0
204960,Gordon Dairy #6,33.9929,-117.628,14361 Grove Avenue,Ontario,San Bernardino,91762,8,#N/A,#N/A,#N/A,10024,2023,0,0,0,0,0,0,0,0,2a,2a,0
204964,Alexander Dairy,37.7178,-120.962,2054 Crawford Road,Modesto,Stanislaus,95357,5S,#N/A,#N/A,#N/A,10025,2023,0,0,0,0,0,0,0,0,2a,2e,0
204971,Alexandre Dairy,41.8958,-124.1759,8371 Lower Lake,Crescent City,Del Norte,95531,1,#N/A,#N/A,#N/A,10026,2023,1808,251,1027,758,407,193,0,4444,1,1,1
204985,Alfred Soares Dairy,37.0575,-120.4377,21282 Road 6,Chowchilla,Madera,93610,5F,#N/A,#N/A,#N/A,10027,2023,940,140,750,610,430,0,0,2870,1,1,1
205090,Frank Rosa Diary (Closed),36.5305,-119.777,910 East Klepper Street,Fresno,Fresno,93725,5F,#N/A,#N/A,#N/A,10028,2023,0,0,0,0,0,0,0,0,2a,2c,0
205287,Defense Ranch Dairy (Closed),37.0236,-120.3505,10726 Avenue 19,Chowchilla,Madera,93610,5F,#N/A,#N/A,#N/A,10029,2023,0,0,0,0,0,0,0,0,2b,2b,0
205356,Alvaro Machado Dairy,36.3973,-119.6188,5230 9th Avenue,Hanford,Kings,93230,5F,#N/A,#N/A,#N/A,10030,2023,865,130,290,295,145,0,0,1725,1,1,1
205357,"Alvernaz Dairy, Inc.",37.4851,-120.9944,10562 Crows Landing Road,Crows Landing,Stanislaus,95313,5S,#N/A,#N/A,#N/A,10031,2023,0,0,0,0,0,0,0,0,2a,2e,0
205369,Quist Dairy,36.7114,-119.8879,5500 West Jensen Avenue,Fresno,Fresno,93706,5F,#N/A,#N/A,#N/A,10032,2023,0,0,0,0,0,0,0,0,2a,2c,0
205371,Two Star Dairy #1,36.1069,-119.4322,6305 Avenue 176,Tulare,Tulare,93274,5F,#N/A,#N/A,#N/A,10033,2023,0,0,0,0,0,0,0,0,1,1,0
205750,Andrade Dairy,37.0617,-120.3611,10221 Avenue 21 1/2,Chowchilla,Madera,93610,5F,#N/A,#N/A,#N/A,10034,2023,0,0,0,0,0,0,0,0,1,1,0
205753,Fernjo Dairy #2,36.211,-119.2501,14428 Avenue 232,Tulare,Tulare,93274,5F,#N/A,#N/A,#N/A,10035,2023,0,0,800,100,0,0,0,900,1,1,0
205765,AJ Slenders Dairy,36.4666,-119.7808,625 East Coleman Avenue,Laton,Fresno,93242,5F,#N/A,#N/A,#N/A,10036,2023,1012,110,450,350,150,0,0,2072,1,1,1
205805,Angiola Dairy,36.0054,-119.4491,5515 Avenue 120,Corcoran,Tulare,93212,5F,#N/A,#N/A,#N/A,10037,2023,989,214,390,170,438,87,0,2288,1,1,1
205829,Ankeridge Dairy,36.2453,-119.175,17873 Avenue 256,Visalia,Tulare,93292,5F,#N/A,#N/A,#N/A,10038,2023,0,0,0,0,0,0,0,0,2a,2e,0
205856,Diamond J Dairy LLC,37.1909,-120.4829,6600 South Hwy 59,Merced,Merced,95341,5S,#N/A,#N/A,#N/A,10039,2023,905,156,250,150,180,0,0,1641,1,1,1
205857,Ansonea Dairy,35.2525,-118.9456,5250 Di Giorgio Road,Bakersfield,Kern,93307,5F,#N/A,#N/A,#N/A,10040,2023,1528,332,389,394,376,0,0,3019,1,1,1
205927,former REIS DAIRY (CLOSED),37.126716,-120.329488,25842  Road 12,Chowchilla,Madera,93610,5F,#N/A,#N/A,#N/A,11907,2023,0,0,0,0,0,0,0,0,2a,2e,0
205938,Antonio Ribeiro Dairy,36.4306,-119.804,430 West Mt Whitney Avenue,Riverdale,Fresno,93656,5F,#N/A,#N/A,#N/A,10041,2023,0,0,800,800,0,300,0,1900,1,1,0
205940,Santos Jer-Z Dairy,36.2467,-119.213,25199 Road 164,Visalia,Tulare,93292,5F,#N/A,#N/A,#N/A,10042,2023,305,56,79,0,0,0,0,440,1,1,1
205941,GALHANDRO DAIRY (former Gabriel A. Silveira Dairy),36.22948,-119.58421,16680  7th Avenue,Hanford,Kings,93230,5F,#N/A,#N/A,#N/A,11912,2023,0,0,0,0,0,0,0,0,2a,3g,0
206288,A & M Farms Dairy,36.6068,-119.9781,10380 Manning Avenue,Fresno,Fresno,93706,5F,#N/A,#N/A,#N/A,10043,2023,1789,239,789,501,0,0,0,3318,1,1,1
206290,River Oaks Dairy,36.4285,-119.7336,3621 East Mount Whitney Avenue,Laton,Fresno,93242,5F,#N/A,#N/A,#N/A,10044,2023,1657,190,0,0,0,0,0,1847,1,1,1
206316,Milky Way Dairy,36.4099,-119.3738,34800 Rd 80,Visalia,Tulare,93291,5F,#N/A,#N/A,#N/A,10045,2023,4510,447,5312,3529,962,0,0,14760,1,1,1
206319,G & H Dairy #2,37.8138,-121.0159,16475 Brennan Road,Escalon,San Joaquin,95320,5S,#N/A,#N/A,#N/A,10046,2023,640,0,700,830,0,0,0,2170,1,1,1
206320,G & A Dairy,36.7015,-119.8412,2200 South Marks Avenue,Fresno,Fresno,93706,5F,#N/A,#N/A,#N/A,10047,2023,1255,195,463,219,0,0,0,2132,1,1,1
206371,Flores Dairy,37.4534,-120.5173,1929 West Youd Road,Winton,Merced,95388,5S,#N/A,#N/A,#N/A,10048,2023,0,0,0,0,0,0,0,0,2a,2c,0
206379,Bay Meadow Farms,38.2792,-121.3086,10326 Walnut Avenue,Galt,Sacramento,95632,5S,#N/A,#N/A,#N/A,10049,2023,0,0,0,0,0,0,0,0,2a,2a,0
206461,Pacific Rim Dairy,36.0343,-119.5155,13406 Road 24,Corcoran,Tulare,93212,5F,2021,NaN,AgSTAR,10050,2023,8754,1062,2725,1875,875,0,0,15291,1,1,1
206616,Astiasuain Dairy,36.6546,-119.3823,22654 East Jefferson Avenue,Reedley,Fresno,93654,5F,#N/A,#N/A,#N/A,10051,2023,0,0,13,0,3,0,0,16,1,1,0
206617,GTA Dairy,36.0989,-119.21,16197 Avenue 172,Tulare,Tulare,93274,5F,#N/A,#N/A,#N/A,10052,2023,1059,211,539,440,1972,928,0,5149,1,1,1
206618,Soares Dairy - Dos Palos,37.0322,-120.5198,19045 Road 1,Dos Palos,Madera,93620,5F,2022,NaN,AgSTAR,10053,2023,2850,655,1785,2370,600,0,0,8260,1,1,1
206708,Sozinho Jerseys 2,36.3274,-119.5614,5811 Lacey Boulevard,Hanford,Kings,93230,5F,#N/A,#N/A,#N/A,10054,2023,895,98,66,78,24,0,0,1161,1,1,1
206748,Aukeman Dairy,35.4916,-119.3731,28349 Los Angeles Street,Shafter,Kern,93263,5F,#N/A,#N/A,#N/A,10055,2023,2545,260,703,525,533,0,0,4566,1,1,1
207800,Headquarters Ranch #1,36.3354,-119.7627,9495 17th Ave,Lemoore,Kings,93245,5F,#N/A,#N/A,#N/A,11795,2023,0,0,0,585,0,0,0,585,1,1,0
208214,Aukeman Farms,36.1049,-119.3661,17297 Road 96,Tulare,Tulare,93274,5F,2021,NaN,DDRDP,10056,2023,3140,415,1935,840,640,535,0,7505,1,1,1
208356,Olam Farming Inc.,35.2483,-119.1671,14467 Taft Highway,Bakersfield,Kern,93311,5F,#N/A,#N/A,#N/A,10057,2023,0,0,0,0,0,0,0,0,2a,2e,0
208372,Jacobus DeGroot Dairy #2,36.3793,-119.3428,10438 Avenue 320,Visalia,Tulare,93291,5F,2021,NaN,DDRDP,10058,2023,1243,195,48,0,0,0,0,1486,1,1,1
208374,Desert Oasis Dairy (Former B & E Dairy),34.9044,-117.0805,26599 Community Boulevard,Barstow,San Bernardino,92311,6V,#N/A,#N/A,#N/A,10059,2023,2160,350,0,0,0,0,0,2510,1,1,1
208376,Ulys Dairy,38.4633,-121.7443,8118 Sikes Road,Dixon,Solano,95620,5S,#N/A,#N/A,#N/A,10060,2023,950,134,350,210,78,78,0,1800,1,1,1
208378,Correia Farms,36.3225,-119.4234,29401 Road 68,Visalia,Tulare,93277,5F,#N/A,#N/A,#N/A,10061,2023,350,40,200,0,0,0,0,590,1,1,1
208384,B & J Dairy,38.3242,-121.3242,9950 Arno Road,Galt,Sacramento,95632,5S,#N/A,#N/A,#N/A,10062,2023,585,119,500,800,130,100,0,2234,1,1,1
208499,Delta Woods Dairy,37.791,-121.4346,18700 South Bacchetti Road,Tracy,San Joaquin,95304,5S,#N/A,#N/A,#N/A,10063,2023,670,90,220,200,110,0,0,1290,1,1,1
208503,Joe Avila AFO,34.0046,-117.6183,8559 Schaefer Avenue,Ontario,San Bernardino,91761,8,#N/A,#N/A,#N/A,10064,2023,0,0,0,0,0,0,0,0,2a,2a,0
208546,Art Silva Dairy,37.6824,-120.9002,5201 Milnes Road,Modesto,Stanislaus,95357,5S,#N/A,#N/A,#N/A,10065,2023,937,149,0,0,0,268,0,1354,1,1,1
208592,Bakker Dairy,36.3318,-119.4386,29800 Road 60,Vislia,Tulare,93291,5F,#N/A,#N/A,#N/A,10066,2023,0,0,0,0,0,0,0,0,2b,2b,0
208636,Traver Cattle,36.4313,-119.5009,3212 Avenue 352,Kingsburg,Tulare,93631,5F,#N/A,#N/A,#N/A,11775,2023,0,0,2589,1749,0,0,0,4338,1,1,0
208638,Bancrest Dairy,40.5809,-124.2397,509 Coppini Lane,Ferndale,Humboldt,95536,1,#N/A,#N/A,#N/A,10067,2023,0,0,0,0,0,0,0,0,2a,2c,0
208649,SD Farms II-2,34.0133,-117.6506,13159 Euclid Avenue,Ontario,San Bernardino,91762,8,#N/A,#N/A,#N/A,10068,2023,0,162,44,45,0,0,0,251,1,1,0
208679,Bar 20 Dairy No. 2 & 3,36.73,-120.2385,24387 West Whitesbridge Avenue,Kerman,Fresno,93630,5F,2021,NaN,DDRDP,10069,2023,6700,950,3600,2800,1200,1200,0,16450,1,1,1
208680,Bar 20 Dairy Ranch #1,36.730063,-119.869289,4260  Madison Avenue,Fresno,Fresno,93706,5F,#N/A,#N/A,#N/A,11913,2023,0,0,0,0,0,0,0,0,2a,2a,0
208686,John Vander Poel Dairy (Pixley),35.9385,-119.3429,8001 Road 104,Pixley,Tulare,93256,5F,2019,NaN,DDRDP,10070,2023,4684,430,1925,2096,0,0,0,9135,1,1,1
208697,F & L Barcellos Dairy,36.0532,-119.3955,14581 Road 80,Tipton,Tulare,93272,5F,2026,NaN,DDRDP,10071,2023,649,105,340,122,112,53,0,1381,1,1,1
208747,Barreto & Silveira Dairy,36.3078,-119.4904,11305 2nd Avenue,Hanford,Kings,93230,5F,#N/A,#N/A,#N/A,10072,2023,0,0,0,0,0,0,0,0,1,1,0
209021,Bear Mountain Dairy,35.2063,-119.0545,4551 Bear Mountain Boulevard,Bakersfield,Kern,93313,5F,#N/A,#N/A,#N/A,10073,2023,2548,623,898,988,392,374,0,5823,1,1,1
209118,Bel R. Martin & Sons Dairy,36.1508,-119.3011,12131 Avenue 200,Tulare,Tulare,93274,5F,#N/A,#N/A,#N/A,10074,2023,880,100,325,225,0,0,0,1530,1,1,1
209180,Bello Dairy,38.1011,-122.1698,6  Lake Herman,Benicia,Solano,94510,2,#N/A,#N/A,#N/A,11895,2023,0,0,0,0,0,0,0,0,3g,3g,0
209221,Fontes Dairy Farms - Dairy 1,36.4746,-119.8939,5512 West Davis Avenue,Riverdale,Fresno,93656,5F,#N/A,#N/A,#N/A,10075,2023,585,78,463,390,63,0,0,1579,1,1,1
209228,Former Van Warmerdam Dairy,38.9245,-121.5569,1616 Cornelius Avenue,Nicolaus,Sutter,95659,5S,#N/A,#N/A,#N/A,10076,2023,0,0,0,0,0,0,0,0,1,1,0
209303,"Bergwerff Farms, Inc.",37.8212,-120.8574,7113 Mettler Road,Oakdale,Stanislaus,95361,5S,#N/A,#N/A,#N/A,10077,2023,0,0,0,0,0,0,0,0,2a,2e,0
209326,L & M Dairy,37.8376,-121.0157,13944 Brennan Road,Escalon,San Joaquin,95320,5S,#N/A,#N/A,#N/A,10078,2023,0,0,0,0,0,0,0,0,2b,2b,0
209328,Jesse & James Jongsma Dairy,36.0537,-119.4188,6780 Avenue 144,Tipton,Tulare,93272,5F,#N/A,#N/A,#N/A,10079,2023,1447,331,666,547,115,0,0,3106,1,1,1
209329,Moonstone Dairy,36.283,-119.4796,1305 Iona Avenue,Hanford,Kings,93230,5F,2026,NaN,DDRDP,10080,2023,1811,240,563,619,296,141,0,3670,1,1,1
209367,Bess Dairy,40.5333,-124.0572,5798 Highway 36,Carlotta,Humboldt,95528,1,#N/A,#N/A,#N/A,10081,2023,0,0,0,0,0,0,0,0,2c,2c,0
209398,Bettencourt Dairy,36.982519,-121.471086,4790 Pacheco Pass Highway,Gilroy,Santa Clara,95020,3,#N/A,#N/A,#N/A,11914,2023,0,0,0,0,0,0,0,0,3g,3g,0
209407,Bettinelli Dairy,38.24443,-122.538373,4695  Old Adobe,Petaluma,Sonoma,94954,2,#N/A,#N/A,#N/A,11915,2023,0,0,0,0,0,0,0,0,3g,3g,0
209495,Silva Dairy Farms,37.309,-120.8963,1497 Edminster Road,Stevinson,Merced,95374,5S,#N/A,#N/A,#N/A,10082,2023,1400,350,440,590,215,350,0,3345,1,1,1
209513,"Big De Dairy, LP",36.6037,-119.8436,2947 West Manning Avenue,Fresno,Fresno,93706,5F,#N/A,#N/A,#N/A,10083,2023,1147,138,685,686,368,0,0,3024,1,1,1
209569,William John Jongsma Dairy,35.9993,-119.2301,11598 Road 152,Pixley,Tulare,93256,5F,#N/A,#N/A,#N/A,10084,2023,2340,370,531,702,151,195,0,4289,1,1,1
209582,IVY STAR Dairy,37.0718,-120.9288,14903 South Volta Road,Los Banos,Merced,93635,5S,#N/A,#N/A,#N/A,10085,2023,330,50,115,185,40,0,0,720,1,1,1
209673,Jimi Valov Family Trust,36.2252,-119.3855,2865 West Prosperity Avenue,Tulare,Tulare,93274,5F,#N/A,#N/A,#N/A,10086,2023,0,0,32,0,0,0,0,32,1,1,0
209965,George Boere Family Dairy,33.678,-117.1366,30490 Briggs Road,Menifee,Riverside,92584,8,#N/A,#N/A,#N/A,10087,2023,0,0,0,0,0,0,0,0,2a,2a,0
209966,Boersma Dairy,33.8338,-117.0554,4050 Ramona Expressway,San Jacinto,Riverside,92582,8,#N/A,#N/A,#N/A,10088,2023,872,140,81,59,88,42,0,1282,1,1,1
209968,Boersma Inc.,33.985942,-117.62848,14746  Grove,Chino,San Bernardino,91762,8,#N/A,#N/A,#N/A,11916,2023,0,0,0,0,0,0,0,0,2e,2e,0
209990,Bollema Dairy - Schaefer,34.0039,-117.6249,8261 Schaefer Avenue,Ontario,San Bernardino,91761,8,#N/A,#N/A,#N/A,10089,2023,0,0,0,0,0,0,0,0,2a,2e,0
210036,Still Water Ranch LLC,36.3987,-119.5248,5001 4th Avenue,Hanford,Kings,93230,5F,2019,NaN,AgSTAR,10090,2023,5265,711,2437,2008,940,0,0,11361,1,1,1
210049,"Joe Borba Dairy, Inc.",37.4609,-120.9497,3419 South Moffett Road,Turlock,Stanislaus,95380,5S,#N/A,#N/A,#N/A,10091,2023,0,0,0,50,0,0,0,50,1,1,0
210069,F&L Barcellos Dairy #2/White Gold Dairy,36.0636,-119.4037,7585 Avenue 152,Tipton,Tulare,93272,5F,#N/A,#N/A,#N/A,10092,2023,0,0,1182,754,0,0,0,1936,1,1,0
210070,Feedlot APN 002-240-035,36.4021,-119.7278,15064  Excelsior,Hanford,Kings,93230,5F,#N/A,#N/A,#N/A,11908,2023,0,0,0,0,0,0,0,0,2a,2a,0
210071,Borges Dairy,36.0868,-119.2684,16371 Road 136,Tipton,Tulare,93272,5F,#N/A,#N/A,#N/A,10093,2023,1421,237,230,211,0,0,0,2099,1,1,1
210073,Borges Farms,37.5658,-121.0882,5148 West Grayson Road,Modesto,Stanislaus,95358,5S,#N/A,#N/A,#N/A,10094,2023,750,135,150,100,100,150,0,1385,1,1,1
210098,John Bos Dairy,37.6816,-120.9122,4524 Milnes Road,Modesto,Stanislaus,95357,5S,#N/A,#N/A,#N/A,10095,2023,0,0,0,0,0,0,0,0,2a,2a,0
210100,Bosch Dairy,34.0074,-117.6065,13567 Whispering Lakes Lane,Ontario,San Bernardino,91761,8,#N/A,#N/A,#N/A,10096,2023,500,100,0,0,0,0,0,600,1,1,1
210103,Middle Ranch,36.0762,-119.2622,13805 Avenue 160,Tipton,Tulare,93272,5F,#N/A,#N/A,#N/A,10097,2023,0,0,1529,1551,0,0,0,3080,1,1,0
210104,Rancho Sierra Vista Dairy,36.3881,-119.3303,32866 Road 108,Visalia,Tulare,93291,5F,2021,NaN,DDRDP,10098,2023,2535,357,599,985,681,516,0,5673,1,1,1
210106,Pixley Dairy,35.9968,-119.4127,6801 Avenue 120,Tipton,Tulare,93272,5F,2021,NaN,DDRDP,11680,2023,5260,465,1389,994,581,361,0,9050,3b,3b,1
210107,Bosman Dairy,36.0457,-119.4617,4805 Avenue 144,Tipton,Tulare,93272,5F,#N/A,#N/A,#N/A,10099,2023,0,0,0,0,0,0,0,0,2a,2a,0
210122,Rancho the Fury,33.9833,-117.6097,8920 Merrill Avenue,Ontario,San Bernardino,91762,8,#N/A,#N/A,#N/A,10100,2023,0,0,0,0,0,0,0,0,2a,2a,0
210227,Elbow Creek Dairy,36.4175,-119.2983,34537 Road 124,Visalia,Tulare,93291,5F,#N/A,#N/A,#N/A,10101,2023,916,155,330,195,0,0,0,1596,1,1,1
210234,Brandenberg Feed Yard,32.6794,-115.6125,903 CA 98,Calexico,Imperial,92231,7,#N/A,#N/A,#N/A,11871,2023,0,85,925,1035,940,369,746,4100,1,1,0
210241,Brandt Cattle Company,33.1635,-115.5625,7015  Brandt Road,Calipatria,Imperial,92233,7,#N/A,#N/A,#N/A,11869,2023,0,2930,32017,35837,32546,12756,25819,141905,1,1,0
210254,FM Ranch #5,36.0608,-119.3959,14913 Road 80,Tipton,Tulare,93727,5F,#N/A,#N/A,#N/A,10102,2023,1491,220,295,253,0,0,0,2259,1,1,1
210255,Wagner Dairy #2,37.8282,-121.0546,14981 S Van Allen Rd,Escalon,San Joaquin,95320,5S,#N/A,#N/A,#N/A,10103,2023,1100,0,0,0,0,0,0,1100,1,1,1
210257,Westlake One Trust Facility,36.3298,-119.8346,9900 21st Avenue,Lemoore,Kings,93245,5F,#N/A,#N/A,#N/A,10104,2023,0,0,0,0,0,0,0,0,2a,2c,0
210266,Rainimade Dairy #2,36.4134,-119.2954,34308 Road 124,Visalia,Tulare,93292,5F,#N/A,#N/A,#N/A,10105,2023,747,115,294,176,0,0,0,1332,1,1,1
210275,Mike Brazil Dairy,40.5608,-124.1732,5736 Grizzly Bluff Road,Ferndale,Humboldt,95536,1,#N/A,#N/A,#N/A,10106,2023,88,12,23,17,27,13,0,180,1,1,1
210276,Brazil Dairy,38.2384,-122.7467,3700 Spring Hill Rd.,Petaluma,Sonoma,94952,2,#N/A,#N/A,#N/A,10107,2023,255,35,0,0,0,0,0,290,3a,3a,1
210279,MB-Lucky Lady Farms,37.5511,-121.0099,1306 West Keyes Road,Modesto,Stanislaus,95358,5S,#N/A,#N/A,#N/A,10108,2023,675,130,295,165,95,120,0,1480,1,1,1
210315,Brentwood Farms Dairy,39.8277,-122.1204,24540 Clark Avenue,Orland (Capay),Tehama,95963,5R,#N/A,#N/A,#N/A,10109,2023,0,252,364,491,287,287,0,1681,2a,3a,0
210506,Brommer Dairy,34.005903,-117.627008,13605  Grove,Ontario,San Bernardino,91761,8,#N/A,#N/A,#N/A,11917,2023,0,0,0,0,0,0,0,0,2e,2e,0
210524,Brooks & Erman Ranch,38.2216,-121.245,25873 North Kennefick Road,Galt,San Joaquin,95632,5S,#N/A,#N/A,#N/A,10110,2023,376,33,0,0,0,0,0,409,1,1,1
210558,Bluegrass Dairy,36.287,-119.225,1260 South Mariposa Road,Visalia,Tulare,93291,5F,#N/A,#N/A,#N/A,10111,2023,525,42,10,0,0,0,0,577,1,1,1
210574,Mello D Jerseys,36.3426,-119.7255,14803 Grangeville Boulevard,Hanford,Kings,93230,5F,#N/A,#N/A,#N/A,10112,2023,888,100,0,0,0,0,0,988,1,1,1
210702,Buena Vista Dairy,36.1826,-119.4597,5038 Avenue 216,Tulare,Tulare,93274,5F,#N/A,#N/A,#N/A,10113,2023,0,0,0,0,0,0,0,0,2a,2c,0
210745,Bullfrog Farms,32.8691,-115.7424,2338 Payne Road,Seeley,Imperial,92273,7,2008,2014,AgSTAR,10114,2023,2011,275,478,392,209,135,0,3500,1,1,1
210937,SBS Ag Heifer Ranch,36.1652,-119.4592,20795 Road 52,Tulare,Tulare,93274,5F,#N/A,#N/A,#N/A,10115,2023,0,0,0,0,300,0,0,300,1,1,0
210941,Nick & Amber Buttke Dairy,38.3328,-122.7945,6033 Blank Road,Sebastopol,Sonoma,95472,1,#N/A,#N/A,#N/A,10116,2023,125,17,20,14,9,5,0,190,1,1,1
210965,R & S Dairy LLC,37.8132,-121.0141,24051 East Arthur Road,Escalon,San Joaquin,95320,5S,#N/A,#N/A,#N/A,10117,2023,600,0,295,200,0,0,0,1095,1,1,1
211763,Borba & Sons Dairy,36.0084,-119.2815,13010 Avenue 120,Pixley,Tulare,93256,5F,#N/A,#N/A,#N/A,10118,2023,540,130,0,425,0,0,0,1095,1,1,1
212191,Borba Brothers Dairy,36.2939,-119.6962,13243 Houston Avenue,Hanford,Kings,93230,5F,#N/A,#N/A,#N/A,10119,2023,798,100,150,150,0,0,0,1198,3a,3a,1
212246,Maria C. Mendonca Living Trust,36.4089,-119.8213,1253 West Lewiston Avenue,Riverdale,Fresno,93656,5F,#N/A,#N/A,#N/A,10120,2023,0,0,0,0,0,0,0,0,2a,2b,0
212299,C. Mattos & Sons Dairy,36.2158,-119.5296,17800 4th Avenue,Hanford,Kings,93230,5F,#N/A,#N/A,#N/A,10121,2023,1208,135,268,247,172,0,0,2030,1,1,1
212314,C.G. Van Vliet Dairy,37.7932,-120.9392,30158 East Hwy 120,Escalon,San Joaquin,95320,5S,#N/A,#N/A,#N/A,10122,2023,0,0,0,0,0,0,0,0,2a,2a,0
212442,Cabral Dairy,36.8749472,-120.1122161,8612  Road 24,Madera,Madera,93637,5F,#N/A,#N/A,#N/A,11918,2023,0,0,0,0,0,0,0,0,2a,2e,0
212474,Santa Anita Dairy,36.2119,-119.5362,4356 Kansas Avenue,Hanford,Kings,93230,5F,#N/A,#N/A,#N/A,10123,2023,338,32,53,60,26,0,0,509,1,1,1
212529,Cal-Denier Dairy LLC,38.3367,-121.2871,10715 Arno Road,Galt,Sacramento,95632,5S,#N/A,#N/A,#N/A,10124,2023,850,100,180,110,0,0,0,1240,1,1,1
212593,Calftech (CR),34.006731,-117.644747,7316  Schaefer,Chino,San Bernardino,91710,8,#N/A,#N/A,#N/A,11919,2023,0,0,0,0,0,0,0,0,2e,2e,0
212594,CalfTech Corp #1,36.08391,-119.254757,14180  Ave 160,Tipton,Tulare,93272,5F,#N/A,#N/A,#N/A,11920,2023,0,0,0,0,0,0,0,0,2a,2a,0
212854,Hanford Armona Feedlot/Fagundes & Sons Jerseys,36.3205,-119.7217,10482 14 1/2 Avenue,Lemoore,Kings,93245,5F,#N/A,#N/A,#N/A,10125,2023,0,0,499,0,0,0,0,499,1,1,0
212874,Cameiro Heifer Ranch,32.927,-115.5551,195 West Carey Road,Brawley,Imperial,92227,7,#N/A,#N/A,#N/A,11861,2023,0,158,1722,1927,1750,685,1388,7630,1,1,0
212890,Frank Lourenco Dairy,36.4145759,-119.697533,4024  13 1/4 Avenue,Hanford,Kings,93230,5F,#N/A,#N/A,#N/A,11921,2023,0,0,0,0,0,0,0,0,2a,2e,0
213019,California Polytechnic State University,35.3073,-120.6724,1 Grand Avenue,San Luis Obispo,San Luis Obispo,93405,3,#N/A,#N/A,#N/A,10126,2023,283,39,67,55,29,20,31,524,1,1,1
213097,Canyon Holsteins Dairy,34.01276,-117.183191,12848  San Timoteo Canyon,Redlands,San Bernardino,92373,8,#N/A,#N/A,#N/A,11922,2023,0,0,0,0,0,0,0,0,2e,2e,0
213221,Rancho Del Sol,36.2792,-119.6186,13301 9th Avenue,Hanford,Kings,93230,5F,#N/A,#N/A,#N/A,10127,2023,0,0,745,702,0,0,0,1447,1,1,0
213223,Cardoso Dairy,38.2402,-121.3036,10380 Kost Road,Galt,Sacramento,95632,5S,#N/A,#N/A,#N/A,10128,2023,0,0,0,0,0,0,0,0,2a,2a,0
213227,Nunes & Sons Feedlot (Formerly Tony P. Cardoza),36.2827,-119.2978,12329 Avenue 271,Visalia,Tulare,93291,5F,#N/A,#N/A,#N/A,11796,2023,0,0,537,577,0,0,0,1114,1,1,0
213230,Ritchie & Ritchie Dairy,35.7019,-119.2763,12421 Melcher Road,Mcfarland,Kern,93250,5F,#N/A,#N/A,#N/A,10129,2023,0,0,0,0,0,0,0,0,2a,2e,0
213396,M & M Carvalho Trust Ranch,37.397907,-120.914962,23570 West Geer Avenue,Hilmar,Merced,95324,5S,#N/A,#N/A,#N/A,11923,2023,0,0,0,0,0,0,0,0,2a,3g,0
213397,Carvalho Dairy,37.4717,-120.9982,11443 Crows Landing Road,Crows Landing,Stanislaus,95313,5S,#N/A,#N/A,#N/A,10130,2023,600,100,300,300,100,0,0,1400,1,1,1
213425,Dixie Creek South Dairy,36.2279,-119.5086,24116 Road 28,Tulare,Tulare,93274,5F,#N/A,#N/A,#N/A,10131,2023,0,0,1950,2315,1165,0,0,5430,1,1,0
213447,Vander Eyk & Son Dairy Complex,35.9711,-119.3956,9993 Road 80,Pixley,Tulare,93256,5F,#N/A,#N/A,#N/A,10132,2023,9144,951,1143,0,0,0,0,11238,1,1,1
213570,Goyenetche Dairy #2 Ramona,33.824,-117.0054,2441 Ramona Expressway,San Jacinto,Riverside,92582,8,#N/A,#N/A,#N/A,10133,2023,600,0,0,0,0,0,0,600,3a,2c,1
213836,Doornenbal Dairy #3,37.8277,-121.0737,19325 Lone Tree Road,Escalon,San Joaquin,95320,5S,#N/A,#N/A,#N/A,10134,2023,0,0,0,0,0,0,0,0,1,1,0
214034,Chris Chaney Dairy,36.6427501,-120.2043431,6240 South El Dorado Avenue,San Joaquin,Fresno,93660,5F,#N/A,#N/A,#N/A,11924,2023,0,0,0,0,0,0,0,0,2a,2a,0
214303,Chiapetta Dairy,37.8666,-121.0553,3603  Chileno Valley,Petaluma,Sonoma,94952,2,#N/A,#N/A,#N/A,11905,2023,0,0,0,0,0,0,0,0,2e,2e,0
214396,Chino Livestock Market Inc,33.9976,-117.627,8148 Edison Avenue,Ontario,San Bernardino,91762,8,#N/A,#N/A,#N/A,10135,2023,0,2,20,22,20,8,16,88,2a,3b,0
214430,Chris & John Jongsma Dairy,36.0205,-119.2205,15759 Avenue 128,Tipton,Tulare,93272,5F,#N/A,#N/A,#N/A,10136,2023,2120,233,970,697,548,0,0,4568,1,1,1
214433,Chris De Jong Dairy,36.0575,-119.1972,14763 Road 168,Porterville,Tulare,93257,5F,#N/A,#N/A,#N/A,10137,2023,1243,126,492,804,0,0,0,2665,1,1,1
214548,Ed Machado Dairy,37.7194,-121.1991,8940 East Melton Road,Manteca,San Joaquin,95337,5S,#N/A,#N/A,#N/A,10138,2023,0,0,0,0,0,0,0,0,1,1,0
214710,Claribel Farms,37.711,-120.7921,11043 Claribel Road,Oakdale,Stanislaus,95361,5S,#N/A,#N/A,#N/A,10139,2023,0,0,0,0,0,0,0,0,2a,2b,0
214720,Clark Feedlot,36.261,-119.6368,14541  10th Avenue,Hanford,Kings,93230,5F,#N/A,#N/A,#N/A,11797,2023,0,0,100,350,490,0,0,940,1,1,0
214738,"Clarot Farms, Inc.",37.5314,-121.0261,7260 Carpenter Road,Modesto,Stanislaus,95358,5S,#N/A,#N/A,#N/A,10140,2023,0,0,920,755,405,0,0,2080,1,1,0
214946,"Coalinga Feed Yard, Inc.",36.2229,-120.3527,35244  Oil City Road,Coalinga,Fresno,93210,5F,#N/A,#N/A,#N/A,11798,2023,0,0,0,0,0,0,9479,9479,1,1,0
215043,L & L Morais Dairy,36.1362,-119.4073,7330 Avenue 190,Tulare,Tulare,93274,5F,#N/A,#N/A,#N/A,10141,2023,0,0,0,0,0,0,0,0,1,1,0
215045,Elk Creek Dairy,36.1164,-119.3579,17993 ROAD 96,Tulare,Tulare,93274,5F,2022,NaN,DDRDP,10142,2023,1437,229,537,509,175,0,0,2887,1,1,1
215048,J & F Coelho Dairy,36.6534,-119.8713,5614 South Blythe Avenue,Fresno,Fresno,93706,5F,#N/A,#N/A,#N/A,10143,2023,0,0,0,0,0,0,0,0,2a,2b,0
215049,Coelho Farms LP,37.0986,-120.4423,5615 Ave 24,Chowchilla,Madera,93610,5S,#N/A,#N/A,#N/A,10144,2023,0,0,0,0,0,0,0,0,1,1,0
215050,Coelho Farms Dairy,36.4194,-119.8934,21663 South Cornelia Avenue,Riverdale,Fresno,93656,5F,#N/A,#N/A,#N/A,10145,2023,0,0,0,3,0,0,0,3,1,1,0
215053,Coelho's Clover Dairy,37.6831,-120.9076,3100 DeWitt Road,Modesto,Stanislaus,95357,5S,#N/A,#N/A,#N/A,10146,2023,0,350,750,750,0,0,0,1850,1,1,0
215072,Outlaw Dairy,36.1378,-119.2883,12735 Avenue 192,Tulare,Tulare,93274,5F,#N/A,#N/A,#N/A,10147,2023,564,39,638,0,0,0,0,1241,1,1,1
215696,Corcoran Prison Dairy,36.0597,-119.5548,4001 King Avenue,Corcoran,Kings,93212,5F,#N/A,#N/A,#N/A,10148,2023,792,115,360,360,0,0,0,1627,3a,3a,1
215702,Corda and Sons Dairy,38.2777,-122.6606,5493 Redwood Highway South,Petaluma,Sonoma,94952,2,#N/A,#N/A,#N/A,10149,2023,167,23,104,75,44,27,0,440,3a,3a,1
215706,Cordeniz Ranch,36.2502285,-119.3334984,3999 North Blackstone,Tulare,Tulare,93274,5F,#N/A,#N/A,#N/A,11925,2023,0,0,0,0,0,0,0,0,2a,2a,0
215726,De Jong Dairy Farms Inc.,36.4565,-119.2802,13076 Avenue 368,Visalia,Tulare,93292,5F,#N/A,#N/A,#N/A,10150,2023,1766,206,0,0,0,0,0,1972,1,1,1
215842,D.V. Silveira and Son Dairy,37.1036,-120.9007,22578 West Henry Miller Road,Los Banos,Merced,95635,5S,#N/A,#N/A,#N/A,10151,2023,466,63,30,176,62,0,0,797,1,1,1
215853,Costa View Farms,36.9936,-120.279,16800 Road 15,Madera,Madera,93637,5F,2022,NaN,AgSTAR,10152,2023,6025,830,1550,1930,250,0,0,10585,1,1,1
215856,L & L Pires Dairy,37.6379,-121.1353,7713 Maze Boulevard,Modesto,Stanislaus,95358,5S,#N/A,#N/A,#N/A,10153,2023,0,0,0,0,0,0,0,0,1,1,0
215896,Duhalde Dairy #2,33.976,-117.6129,8819 Remington Avenue,Chino,San Bernardino,91710,8,#N/A,#N/A,#N/A,10154,2023,0,0,0,0,0,0,0,0,2e,2e,0
215929,Countryside Dairy,36.1685,-119.4944,20991 Road 36,Tulare,Tulare,93274,5F,#N/A,#N/A,#N/A,10155,2023,0,0,0,0,0,0,0,0,2a,2e,0
215959,Couto Dairy,39.5381,-122.1216,1980 County Rd QQ,Willows,Glenn,95988,5S,#N/A,#N/A,#N/A,10156,2023,330,35,50,40,30,35,0,520,1,1,1
215960,Couto Dairy,36.4752,-119.8839,4870 West Davis Avenue,Riverdale,Fresno,93656,5F,#N/A,#N/A,#N/A,10157,2023,0,0,0,0,0,0,0,0,2b,2b,0
216354,Tony Cox & Family Dairy,36.4222,-119.6878,3594 12 3/4 Avenue,Hanford,Kings,93230,5F,#N/A,#N/A,#N/A,10158,2023,0,0,0,0,0,0,0,0,2b,2b,0
216361,Cunningham Dairy,38.4114,-122.7011,3018 Petaluma Hill Road,Santa Rosa,Sonoma,95404,1,#N/A,#N/A,#N/A,10159,2023,0,0,25,25,41,9,0,100,1,1,0
216429,Cuyama Dairy,34.8986,-119.5537,1315 Foothill Road,Maricopa,Santa Barbara,93252,3,#N/A,#N/A,#N/A,10160,2023,958,28,34,26,15,9,0,1070,1,1,1
216513,A & C Vieira Dairy,38.633,-121.9243,31505 County Rd 26,Winters,Yolo,95694,5S,#N/A,#N/A,#N/A,10161,2023,1339,160,400,0,500,300,0,2699,1,1,1
216523,Poplar Lane Dairy,36.2249,-119.554,5387 Kent Avenue,Hanford,Kings,93230,5F,2023,NaN,DDRDP,10162,2023,2188,312,1170,975,414,0,0,5059,1,1,1
217081,Cartmill Ranch Feedlot,36.2421,-119.4552,5182 Avenue 248,Tulare,Tulare,93274,5F,#N/A,#N/A,#N/A,10163,2023,0,0,0,0,331,0,0,331,1,1,0
217464,Circle LC Corp.,38.2963,-122.5864,3272 Adobe Road,Petaluma,Sonoma,94954,2,#N/A,#N/A,#N/A,10164,2023,0,0,0,0,0,0,0,0,2a,2a,0
217948,Cloverdale Dairy,36.1896,-119.6504,19142 10 1/2 Avenue,Hanford,Kings,93230,5F,2021,NaN,DDRDP,10165,2023,4896,716,1330,671,0,0,0,7613,1,1,1
218037,Coderview Holsteins Dairy,36.9822,-120.5205,40396 Valeria,Dos Palos,Fresno,93620,5F,#N/A,#N/A,#N/A,10166,2023,0,0,0,25,0,0,0,25,1,1,0
218302,Contente & Company Dairy,36.3581,-119.7284,7900 15th Avenue,Hanford,Kings,93230,5F,#N/A,#N/A,#N/A,10167,2023,810,110,160,120,140,150,0,1490,1,1,1
218468,Avalon Dairy Farms,35.7114,-119.4205,27125 Pond Road,Wasco,Kern,93280,5F,2023,NaN,DDRDP,10168,2023,2965,285,410,1440,1290,650,0,7040,1,1,1
218890,Dream Dairy #1 (Former Silva & Sons #2 Dairy),36.4033,-119.5779,6700 Excelsior Avenue,Hanford,Kings,93230,5F,#N/A,#N/A,#N/A,10169,2023,400,45,80,40,0,0,0,565,1,1,1
218891,Ken Van Foeken Dairy #2,37.4248,-120.9046,9375 North Washington Road,Hilmar,Merced,95324,5S,#N/A,#N/A,#N/A,10170,2023,558,67,304,119,109,141,0,1298,1,1,1
218915,Mattos Dairy #4,36.2111,-119.5391,4555 Kansas Avenue,Hanford,Kings,93230,5F,#N/A,#N/A,#N/A,10171,2023,0,0,0,596,0,0,0,596,1,1,0
218919,D & V Dairy,36.0499,-119.2188,15625 Avenue 144,Tipton,Tulare,93272,5F,#N/A,#N/A,#N/A,10172,2023,3401,272,604,398,321,0,0,4996,1,1,1
218933,Caton Farms Dairy,37.822,-120.9609,15635 South Steinegul Road,Escalon,San Joaquin,95320,5S,#N/A,#N/A,#N/A,10173,2023,475,100,105,100,100,86,0,966,1,1,1
218979,Lopes Dairy,36.2695,-119.7926,18682 Idaho Avenue,Lemoore,Kings,93245,5F,#N/A,#N/A,#N/A,10174,2023,0,0,0,0,0,0,0,0,2a,2e,0
218989,former PAIM DAIRY (CLOSED),36.591508,-119.89863,9890 S Hayes Avenue,Raisin City,Fresno,93652,5F,#N/A,#N/A,#N/A,11926,2023,0,0,0,0,0,0,0,0,2a,2e,0
218992,"T & L Family Dairy, LLC",37.4816,-120.7896,1131 Story Road,Turlock,Stanislaus,95380,5S,#N/A,#N/A,#N/A,10175,2023,423,23,0,0,0,0,0,446,1,1,1
218996,Luis A Pimentel Dairy,38.3442,-121.4173,11375 Bruceville Road,Elk Grove,Sacramento,95757,5S,#N/A,#N/A,#N/A,10176,2023,260,35,23,81,59,0,0,458,1,1,1
219017,Dairyland Farms Dairy,36.0784,-119.2284,15982 Road 152,Tipton,Tulare,93272,5F,2023,NaN,DDRDP,10177,2023,2611,384,989,265,228,109,0,4586,1,1,1
219037,Matos Dairy,37.2856,-120.5929,100 South Quinley Avenue,Merced,Merced,95341,5S,#N/A,#N/A,#N/A,10178,2023,2100,400,621,830,300,0,0,4251,1,1,1
219038,Dallape Dairy,33.9187,-117.5923,2877 River Road,Norco,Riverside,92860,8,#N/A,#N/A,#N/A,10179,2023,0,0,0,0,0,0,0,0,2a,2a,0
219054,Collenberg Dairy,40.9139,-124.1033,1555 Mad River Road,Arcata,Humboldt,95521,1,#N/A,#N/A,#N/A,10180,2023,0,0,0,0,0,0,0,0,2a,2a,0
219062,Silacci Dairy,38.2281,-122.5691,4349 Lakeville,Petaluma,Sonoma,94954,2,#N/A,#N/A,#N/A,10181,2023,241,34,84,60,35,21,0,475,1,1,1
219081,Diamond D LLC Dairy,36.2688,-119.6261,9601 Idaho Avenue,Hanford,Kings,93230,5F,#N/A,#N/A,#N/A,10182,2023,3469,520,862,690,259,0,0,5800,1,1,1
219087,former DANIELI BROS DAIRY,37.038199,-120.315069,12778  Avenue 20,Chowchilla,Madera,93610,5F,#N/A,#N/A,#N/A,11927,2023,0,0,0,0,0,0,0,0,2e,2e,0
219125,Darren & Karen Hansen Dairy,40.5661,-124.2078,3784 Grizzly Bluff Road Lane,Ferndale,Humboldt,95536,1,#N/A,#N/A,#N/A,10183,2023,63,9,13,9,26,12,0,132,1,1,1
219199,P & D Dairy #3,33.9999,-117.6368,13905 Bon View Avenue,Ontario,San Bernardino,91762,8,#N/A,#N/A,#N/A,10184,2023,0,0,755,772,0,0,0,1527,1,1,0
219200,David Vander Schaaf Dairy-Chin,34.012541,-117.622802,8350  Chino,Ontario,San Bernardino,91761,8,#N/A,#N/A,#N/A,11928,2023,0,0,0,0,0,0,0,0,3g,3g,0
219285,Legend Dairy Farm #1,34.0166,-117.6054,9155 Riverside Drive,Ontario,San Bernardino,91761,8,#N/A,#N/A,#N/A,10185,2023,1800,300,115,85,0,0,20,2320,1,1,1
219286,Legend Dairy Farm,34.0093,-117.6195,13456 Walker Avenue,Ontario,San Bernardino,91761,8,#N/A,#N/A,#N/A,10186,2023,1200,200,345,255,0,0,10,2010,1,1,1
219287,De Boer Dairy,36.0936,-119.2389,14976 Avenue 168,Tulare,Tulare,93274,5F,2023,NaN,DDRDP,10187,2023,3043,326,905,1164,711,0,0,6149,1,1,1
219290,J-D Brasil Dairy,37.4798,-120.9151,5600 Clayton Road,Turlock,Stanislaus,95380,5S,#N/A,#N/A,#N/A,10188,2023,365,15,60,0,0,0,0,440,1,1,1
219292,De Carvalho Brothers Dairy,37.6376,-121.1474,8342 Maze Boulevard,Modesto,Stanislaus,95358,5S,#N/A,#N/A,#N/A,10189,2023,485,60,180,160,65,60,0,1010,1,1,1
219293,"The Dairy, Inc.",36.3848,-119.8363,6240 21st Avenue,Lemoore,Kings,96245,5F,#N/A,#N/A,#N/A,10190,2023,1097,32,0,0,0,0,0,1129,1,1,1
219305,Frank Borba & Sons Dairy #3,36.047,-119.197,14153 Road 168,Porterville,Tulare,93257,5F,#N/A,#N/A,#N/A,10191,2023,1272,136,741,326,242,0,0,2717,1,1,1
219319,De Ruyter Dairy,37.7012,-121.2453,27947 South Airport Way,Manteca,San Joaquin,95337,5S,#N/A,#N/A,#N/A,10192,2023,0,0,0,0,0,0,0,0,2a,2b,0
219321,Mcree East Dairy,37.0107,-120.3311,11812 Avenue 18,Chowchilla,Madera,93610,5F,#N/A,#N/A,#N/A,10193,2023,0,0,0,0,0,0,0,0,1,1,0
219323,Van Exel Dairy #2,38.1568,-121.3971,18948 North Thornton Road,Lodi,San Joaquin,95242,5S,#N/A,#N/A,#N/A,10194,2023,0,0,0,0,0,0,0,0,1,1,0
219329,Peter de Visser Dairy,37.8419,-121.0495,21268 East Avena Road,Escalon,San Joaquin,95320,5S,#N/A,#N/A,#N/A,10195,2023,680,91,20,250,50,0,0,1091,1,1,1
219390,C & A Holsteins (Dairy),35.9419,-119.3978,7957 Avenue 84,Pixley,Tulare,93256,5F,#N/A,#N/A,#N/A,10196,2023,0,0,0,0,0,0,0,0,2a,2a,0
219426,Sozinho Dairy #2,36.4874,-119.6379,8489 East Elkhorn Avenue,Selma,Fresno,93662,5F,#N/A,#N/A,#N/A,10197,2023,1163,196,535,281,0,32,0,2207,1,1,1
219445,Del Charro,32.9452,-115.3798,3990  Holt Avenue,Brawley,Imperial,92227,7,#N/A,#N/A,#N/A,11863,2023,0,173,1889,2114,1920,753,1523,8372,1,1,0
219568,Delta View Farms Dairy,36.3414,-119.4644,4845 Avenue 304,Visalia,Tulare,93291,5F,#N/A,#N/A,#N/A,10198,2023,1800,300,750,600,200,0,0,3650,1,1,1
219581,Deniz Dairy,38.2884,-122.6135,421 Sonoma Mountain Rd.,Petaluma,Sonoma,94954,2,#N/A,#N/A,#N/A,10199,2023,263,37,0,0,0,0,0,300,1,1,1
219582,Former Hidden Valley Dairy,37.5742,-121.1525,8611 Dos Rios Lane,Modesto,Stanislaus,95358,5S,#N/A,#N/A,#N/A,10200,2023,0,0,0,0,0,0,0,0,2a,2b,0
219586,D & D Holsteins Dairy,37.1366,-120.9634,26135 West Malta Road,Gustine,Merced,95322,5S,#N/A,#N/A,#N/A,10201,2023,850,150,20,220,150,0,0,1390,1,1,1
219588,Dennis Boertje & Son Dairy,36.4691,-119.2768,37404 Road 132,Visalia,Tulare,93292,5F,#N/A,#N/A,#N/A,10202,2023,1608,175,804,0,0,0,0,2587,1,1,1
219699,Deuel Vocational Institute Dairy,37.738411,-121.326153,23500 Kasson Road,Tracy,San Joaquin,95376,5S,#N/A,#N/A,#N/A,10203,2023,0,0,0,0,0,0,0,0,2e,2e,0
220120,Dias and Sons Dairy,36.2263,-119.5939,7594 Kent Avenue,Hanford,Kings,93230,5F,#N/A,#N/A,#N/A,10204,2023,420,62,200,187,55,0,0,924,1,1,1
220162,Diamond Point Dairy,40.5846,-124.1889,1312 Pleasant Point Road,Ferndale,Humboldt,95536,1,#N/A,#N/A,#N/A,10205,2023,260,36,63,47,64,31,0,501,1,1,1
220164,Diamond R Ranch,40.5239,-124.1741,100 Price Creek Road,Ferndale,Humboldt,95536,1,#N/A,#N/A,#N/A,10206,2023,97,13,17,13,20,10,0,170,1,1,1
220186,Bar E Dairy,36.4458,-119.5778,6740 Corona Avenue,Kingsburg,Kings,93631,5F,#N/A,#N/A,#N/A,10207,2023,938,138,0,0,0,0,0,1076,1,1,1
220188,Dykstra Heifer Ranch,36.1679,-119.4037,7560 Avenue 208,Tulare,Tulare,93274,5F,#N/A,#N/A,#N/A,11761,2023,0,0,0,281,0,0,0,281,1,1,0
220233,Capstone Dairy,36.9567,-120.2873,14303 Avenue 14,Madera,Madera,93637,5F,#N/A,#N/A,#N/A,10208,2023,3600,400,0,0,0,0,0,4000,1,1,1
220294,D & M Ag,37.5096,-120.7396,1933 Hall Road,Denair,Stanislaus,95316,5S,#N/A,#N/A,#N/A,10209,2023,975,100,350,350,140,150,0,2065,1,1,1
220403,DL & A Dairy (rescinded),36.1954,-119.4539,5295 Avenue 224,Tulare,Tulare,93274,5F,#N/A,#N/A,#N/A,10210,2023,0,0,0,0,0,0,0,0,2a,2e,0
220432,JJ's Family Dairy,38.2006,-122.7848,4669 Chileno Valley Road,Petaluma,Sonoma,94952,2,#N/A,#N/A,#N/A,10211,2023,246,34,0,0,0,0,0,280,1,1,1
220433,Dolcini Jersey Dairy,38.1045,-122.7212,10049 Pt. Reyes Petaluma,Nicasio,Marin,94946,2,#N/A,#N/A,#N/A,10212,2023,255,36,159,114,66,41,0,671,1,1,1
220471,Domingos Ribeiro Dairy,37.1114,-120.316,12718 Avenue 25,Chowchilla,Madera,93610,5F,#N/A,#N/A,#N/A,10213,2023,960,85,345,285,100,130,0,1905,1,1,1
220502,Don Van Dam Dairy,33.99853,-117.646702,7244  Edison,Chino,San Bernardino,91710,8,#N/A,#N/A,#N/A,11929,2023,0,0,0,0,0,0,0,0,3g,3g,0
220511,Donald A. Pedrotti (Pedrotti Dairy),40.7482,-124.1837,5396 Elk River Road,Eureka,Humboldt,95503,1,#N/A,#N/A,#N/A,10214,2023,61,9,8,6,9,4,0,97,1,1,1
220555,Doornenbal Dairy #1,37.8254,-121.0758,19116 Lone Tree Road,Escalon,San Joaquin,95320,5S,#N/A,#N/A,#N/A,10215,2023,1250,220,100,0,0,0,0,1570,1,1,1
220556,Doornenbal Dairy #2,37.8138,-121.0518,16348 South Van Allen Road,Escalon,San Joaquin,95320,5S,#N/A,#N/A,#N/A,10216,2023,350,0,0,0,0,0,0,350,1,1,1
220560,Dores Dairy,37.3354,-120.9025,22846 West Second Avenue,Stevinson,Merced,95374,5S,2026,NaN,DDRDP,10217,2023,1305,95,385,0,443,123,0,2351,1,1,1
220575,Former Dotinga Dairy,37.7228,-120.7954,5737 Crow Road,Oakdale,Stanislaus,95361,5S,#N/A,#N/A,#N/A,10218,2023,0,0,0,0,0,0,0,0,2b,2b,0
220578,Medeiros Holsteins #2,36.4529,-119.7783,19436 East Street,Laton,Fresno,93242,5F,#N/A,#N/A,#N/A,10219,2023,0,0,0,0,0,0,0,0,1,1,0
220581,Del-Arco Dairy,36.0704,-119.3908,15506 Road 80,Tipton,Tulare,93272,5F,#N/A,#N/A,#N/A,10220,2023,0,0,0,0,0,0,0,0,1,1,0
220588,Double DJ Farms Dairy,37.1378,-120.2789,14768 Avenue 27,Chowchilla,Madera,93610,5F,#N/A,#N/A,#N/A,10221,2023,2820,360,500,0,0,0,0,3680,1,1,1
220597,Double J Dairy,36.3879,-119.4253,6656 Avenue 328,Visalia,Tulare,93291,5F,2021,NaN,DDRDP,10222,2023,6630,901,1560,877,1194,814,0,11976,1,1,1
220599,Double N Dairy,36.394,-119.6851,12700 Everett Avenue,Hanford,Kings,93230,5F,#N/A,#N/A,#N/A,10223,2023,935,100,0,0,160,0,0,1195,1,1,1
220606,Doug Ielmorini Dairy,38.0835,-122.6939,5720 Nicasio Valley Road,Nicasio,Marin,94946,2,#N/A,#N/A,#N/A,10224,2023,193,27,63,45,26,16,0,370,1,1,1
220613,"Bianchini Inc., Bivalve Dairy",38.1006,-122.822,12800 State Hwy 1,Point Reyes Station,Marin,94956,2,#N/A,#N/A,#N/A,10225,2023,90,12,43,30,18,11,0,204,1,1,1
220627,Dover Dairy,36.4147,-119.5358,4265 Dover Avenue,Hanford,Kings,93230,5F,#N/A,#N/A,#N/A,10226,2023,2150,275,1115,540,475,505,0,5060,1,1,1
220628,Dover Dairy #2,36.4016,-119.5457,4998 Excelsior Avenue,Hanford,Kings,93230,5F,#N/A,#N/A,#N/A,10227,2023,0,0,0,0,0,0,0,0,2a,2e,0
220752,Droogh Dairy,36.3435,-119.8789,23535 Grangeville Boulevard,Lemoore,Kings,93245,5F,#N/A,#N/A,#N/A,10228,2023,1350,120,750,700,0,0,0,2920,1,1,1
220769,De Jong Feedlot,36.462274,-119.29467,NE Corner of Ave 368 and Road 124,Visalia,Tulare,93291,5F,#N/A,#N/A,#N/A,11910,2023,0,0,0,0,0,0,0,0,2a,3g,0
220784,Duarte Family Dairy Inc.,38.3281,-121.4162,11807 Bruceville Road,Elk Grove,Sacramento,95757,5S,#N/A,#N/A,#N/A,10229,2023,0,0,0,0,0,0,0,0,2a,2a,0
220904,Dutch Dairy,34.7871,-117.2877,17215 Wild Road,Helendale,San Bernardino,92342,6V,#N/A,#N/A,#N/A,10230,2023,726,99,172,141,75,50,0,1263,1,1,1
220912,W.J. Dairy #2,37.7426,-120.8307,9161 Warnerville Road,Oakdale,Stanislaus,95361,5S,#N/A,#N/A,#N/A,10231,2023,1175,175,300,600,250,0,0,2500,1,1,1
220914,Dutra & Dutra Dairy,36.3653,-119.5469,7480 5th Avenue,Hanford,Kings,93230,5F,#N/A,#N/A,#N/A,10232,2023,460,70,40,40,28,0,0,638,1,1,1
220915,Golden Star Dairy LLC #2,36.3796,-119.7457,6398 16th Avenue,Hanford,Kings,93230,5F,#N/A,#N/A,#N/A,10233,2023,0,0,0,0,0,0,0,0,1,1,0
220916,"Dutra Farms, Inc.",37.7372,-121.2402,5496 West Ripon Road,Manteca,San Joaquin,95337,5S,#N/A,#N/A,#N/A,10234,2023,1450,240,450,500,300,180,0,3120,1,1,1
220949,Mountain View Dairy,33.9903,-117.5848,10084 Eucalyptus Avenue,Ontario,San Bernardino,91762,8,#N/A,#N/A,#N/A,10235,2023,0,0,0,0,0,0,0,0,2a,2a,0
220951,Dykstra Dairy,36.1044,-119.4167,6801 Avenue 176,Tulare,Tulare,93274,5F,2021,NaN,DDRDP,10236,2023,3830,456,624,219,477,438,0,6044,1,1,1
220952,former FLYING W DAIRY (CLOSED),36.5762105,-119.8939027,5680 West Floral Avenue,Caruthers,Fresno,93609,5F,#N/A,#N/A,#N/A,11930,2023,0,0,0,0,0,0,0,0,2a,2a,0
220971,Dyt Dairy #2,33.9776,-117.5866,6051 Harrison,Corona,Riverside,91720,8,#N/A,#N/A,#N/A,10237,2023,0,0,0,0,0,0,0,0,2e,2e,0
220972,Dyt Heifers,33.978,-117.5852,6106 Harrison,Corona,Riverside,92880,8,#N/A,#N/A,#N/A,10238,2023,0,0,0,0,0,0,0,0,2a,2a,0
221121,DE GROOT DAIRY #1,36.2072,-119.1915,17408 AVENUE 232,Lindsay,Tulare,93247,5F,#N/A,#N/A,#N/A,11669,2023,1620,280,115,0,300,0,0,2315,3d,3d,1
221364,Diamond H Dairy,37.016,-120.3728,9564 Avenue 18 1/2,Chowchilla,Madera,93610,5F,#N/A,#N/A,#N/A,10239,2023,5633,770,1814,2611,1083,1580,0,13491,1,1,1
221380,Dick Vanderham Dairy,36.064,-119.2885,12565 Avenue 152,Tipton,Tulare,93272,5F,#N/A,#N/A,#N/A,10240,2023,2632,273,779,911,336,0,0,4931,1,1,1
221703,Mill Oak Farms,36.2397,-119.2974,2677 N Oakmore Rd,Tulare,Tulare,93274,5F,#N/A,#N/A,#N/A,11774,2023,0,0,314,0,0,0,0,314,1,1,0
221708,Phoenix Dairy,36.319,-119.486,10736 1 1/2 Avenue,Hanford,Kings,93230,5F,#N/A,#N/A,#N/A,10241,2023,590,1085,400,0,0,0,0,2075,1,1,1
221709,Double Cross #3,37.4499,-120.8211,11090 Youngstown Road,Turlock,Merced,95380,5S,#N/A,#N/A,#N/A,10242,2023,402,0,149,0,0,0,0,551,1,1,1
221728,Turner Dairy,38.1458,-121.4003,18035 North Jacob Brack Road,Lodi,San Joaquin,95242,5S,#N/A,#N/A,#N/A,10243,2023,0,0,0,0,0,0,0,0,2b,2e,0
222196,ED Brower Dairy,36.2412,-119.1643,18514 Avenue 248,Exeter,Tulare,93221,5F,#N/A,#N/A,#N/A,10244,2023,0,0,0,0,0,0,0,0,2a,2a,0
222199,Orland Livestock Commission Yard,39.7008,-122.1979,3877 County Road 99W,Orland,Glenn,95963,5S,#N/A,#N/A,#N/A,11721,2023,0,0,0,0,0,0,1700,1700,1,1,0
222202,Paulo Bros Dairy,36.2807,-119.6182,13213 9th Avenue,Hanford,Kings,93230,5F,#N/A,#N/A,#N/A,10245,2023,0,0,0,0,0,0,0,0,1,1,0
222203,Pinheiro Dairy,39.7838,-122.206,6368 County Rd 7,Orland,Glenn,95963,5S,#N/A,#N/A,#N/A,10246,2023,0,0,0,0,0,0,0,0,2b,2b,0
222207,ED SOUZA & SON DAIRY,36.2331,-119.2305,15390 Avenue 244,Tulare,Tulare,93274,5F,#N/A,#N/A,#N/A,10247,2023,184,32,0,93,0,0,0,309,1,1,1
222210,Chino Valley Dairy #2,33.8258,-117.0241,36580 Ramona Expressway,San Jacinto,Riverside,92582,8,#N/A,#N/A,#N/A,10248,2023,400,65,0,0,0,0,0,465,1,1,1
222320,Edward Nunes Dairy,37.8417,-121.0985,17399 East Avena Road,Escalon,San Joaquin,95320,5S,#N/A,#N/A,#N/A,10249,2023,1859,294,547,376,394,398,0,3868,1,1,1
222322,Valadao Dairy,36.2215,-119.6278,17293 9 1/2 Avenue,Hanford,Kings,93230,5F,2021,NaN,DDRDP,10250,2023,1974,97,1213,1330,472,0,0,5086,1,1,1
222334,Edwin H Smith & Sons Dairy,37.5384,-120.816,4836 North Quincy Road,Denair,Stanislaus,95316,5S,#N/A,#N/A,#N/A,10251,2023,179,22,69,36,18,21,0,345,1,1,1
222457,El Monte Dairy,36.084,-119.3395,10410 Avenue 160,Tipton,Tulare,93272,5F,2021,NaN,DDRDP,10252,2023,2010,320,1400,1900,800,0,0,6430,1,1,1
222503,El Toro Land Cattle,32.7233,-115.523,96 East Fawcett Road,Heber,Imperial,92249,7,#N/A,#N/A,#N/A,11858,2023,0,375,4092,4581,4160,1630,3300,18138,1,1,0
222622,Elkhorn Dairy,36.4634,-119.3451,10400 Avenue 368,Visalia,Tulare,93291,5F,2024,NaN,DDRDP,10253,2023,3286,531,1616,1662,1073,511,0,8679,1,1,1
222672,Mark Vieira Dairy,37.28,-120.6164,203 Applegate Road,Atwater,Merced,95301,5S,#N/A,#N/A,#N/A,10254,2023,380,20,0,0,0,0,0,400,1,1,1
222897,Black Diamond Dairy,36.4647,-119.8262,18607 South Fruit Avenue,Riverdale,Fresno,93656,5F,#N/A,#N/A,#N/A,10255,2023,975,80,400,300,250,0,0,2005,1,1,1
222953,Dr Dairy,36.9888,-120.3848,16554 Road 9,Chowchilla,Madera,93610,5F,#N/A,#N/A,#N/A,10256,2023,0,0,0,0,0,0,0,0,2a,2c,0
223058,Evaristo Vaz Dairy,37.0284,-120.8888,21876 West Sunset Avenue,Los Banos,Merced,93635,5S,#N/A,#N/A,#N/A,10257,2023,885,150,250,500,150,0,0,1935,1,1,1
223384,Henry Brower Dairy,36.2189,-119.1715,23620 Road 180,Lindsay,Tulare,93247,5F,#N/A,#N/A,#N/A,10258,2023,0,0,0,0,0,0,0,0,2a,2e,0
223742,Endeavor Gold Dairy,36.1803,-119.5111,21573 Road 28,Tulare,Tulare,93721,5F,#N/A,#N/A,#N/A,10259,2023,1509,208,743,595,223,0,0,3278,1,1,1
223841,F & J Farms #4,36.2976,-119.3906,7908 Avenue 280,Visalia,Tulare,93277,5F,#N/A,#N/A,#N/A,10260,2023,0,0,0,0,0,0,0,0,2a,2a,0
223965,F & B Ranches Feedlot (closed),36.64589,-119.99591,11101 West Lincoln Avenue,Fresno,Fresno,93706,5F,#N/A,#N/A,#N/A,11931,2023,0,0,0,0,0,0,0,0,2a,2a,0
223968,F & F Heifers,36.2601,-119.3335,25897 Road 108,Tulare,Tulare,93274,5F,#N/A,#N/A,#N/A,11776,2023,0,226,346,304,1083,0,0,1959,1,1,0
223972,Dina Simas Property,36.371734,-119.719938,14672  Flint Avenue,Hanford,Kings,93230,5F,#N/A,#N/A,#N/A,11932,2023,0,0,0,0,0,0,0,0,2a,3g,0
223993,Rivas Dairy,36.9821,-120.5294,41198 West Valeria Avenue,Dos Palos,Fresno,93620,5F,#N/A,#N/A,#N/A,10261,2023,200,18,25,20,18,18,0,299,1,1,1
224013,former EFREN AYALA DAIRY (CLOSED),36.450557,-119.869454,19515 South Brawley Avenue,Riverdale,Fresno,93656,5F,#N/A,#N/A,#N/A,11933,2023,0,0,0,0,0,0,0,0,2b,2b,0
224016,former Dias Riverbend Dairy,36.443423,-119.557941,2319  6th Avenue,Kingsburg,Kings,93631,5F,#N/A,#N/A,#N/A,11934,2023,0,0,0,0,0,0,0,0,2a,2e,0
224037,Fagundes Agribusiness Dairy,36.3635,-119.61,7546 8 1/2 Avenue,Hanford,Kings,93230,5F,#N/A,#N/A,#N/A,10262,2023,0,0,0,0,0,0,0,0,1,1,0
224038,Fagundes Bros. Dairy #2,37.4988,-120.4985,14328 Cox Ferry Road,Snelling,Merced,95369,5S,#N/A,#N/A,#N/A,10263,2023,740,75,0,0,0,0,0,815,1,1,1
224171,Faria Dairy Inc #3,37.8612,-121.0544,11495 South Van Allen Road,Escalon,San Joaquin,95320,5S,#N/A,#N/A,#N/A,10264,2023,0,0,0,0,0,0,0,0,1,1,0
224218,Faust Family Dairy,37.1201,-120.3641,10001 Avenue 25 1/2,Chowchilla,Merced,93610,5S,#N/A,#N/A,#N/A,10265,2023,0,0,555,1135,590,0,0,2280,2c,3a,0
224219,Gomes Dairy,37.4281,-120.9054,9735 Washington Road,Hilmar,Merced,95324,5S,#N/A,#N/A,#N/A,10266,2023,618,88,48,218,0,0,0,972,1,1,1
224315,Felicita Dairy,36.1441,-119.5299,22154 Road 20,Tulare,Kings,93274,5F,2026,NaN,DDRDP,10267,2023,1900,280,420,400,0,0,0,3000,1,1,1
224316,former GRACELAND DAIRY,36.1207,-119.3168,18150 Road 112,Tulare,Tulare,93274,5F,#N/A,#N/A,#N/A,10268,2023,0,0,0,0,0,0,0,0,2a,2e,0
224342,Vitor Borba #2 Dairy,36.2319,-119.6553,16452 11th Avenue,Hanford,Kings,93230,5F,#N/A,#N/A,#N/A,10269,2023,963,174,685,690,0,0,0,2512,1,1,1
224345,Fernando Oliviera Dairy,37.0421453,-120.9269574,22072 West Pioneer Road,Los Banos,Merced,93635,5S,#N/A,#N/A,#N/A,11935,2023,0,0,0,0,0,0,0,0,2a,2e,0
224351,Fernjo Dairy #1,36.2072,-119.2436,23135 Road 148,Tulare,Tulare,93274,5F,#N/A,#N/A,#N/A,10270,2023,790,150,950,0,0,0,0,1890,1,1,1
224360,Albert Goyenetche Dairy #2,33.8397,-117.1083,32100 Ramona Expressway,Lakeview,Riverside,92567,8,#N/A,#N/A,#N/A,10271,2023,0,0,0,0,0,0,0,0,2a,2a,0
224361,Anchordoguy Facility,40.1339,-122.1966,11953 Tyler Road,Red Bluff,Tehama,96080,5S,#N/A,#N/A,#N/A,10272,2023,0,0,0,0,0,0,0,0,2a,2e,0
224362,Ferreira Heifer Ranch,34.0121,-117.6343,7823 Chino Avenue,Ontario,San Bernardino,91761,8,#N/A,#N/A,#N/A,10273,2023,0,0,0,0,0,0,0,0,2a,2a,0
224531,Fiscalini Farms,37.7095,-121.1324,4848 Jackson Road,Modesto,Stanislaus,95358,5S,2009,NaN,AgSTAR,10274,2023,1475,225,500,450,200,0,0,2850,1,1,1
224578,"Flatland Farms, LLC",36.3504,-119.7266,8431 15th Avenue,Hanford,Kings,93230,5F,#N/A,#N/A,#N/A,10275,2023,875,75,250,275,100,0,0,1575,1,1,1
224580,Five Star Dairy,36.0661,-119.2465,14552 Avenue 152,Tipton,Tulare,93272,5F,#N/A,#N/A,#N/A,10276,2023,1559,212,0,0,0,0,0,1771,1,1,1
224595,Flamingo-Weststeyn,33.9443,-117.6086,14970 Chandler Avenue,Eastvale,Riverside,92880,8,#N/A,#N/A,#N/A,10277,2023,0,0,0,0,0,0,0,0,2e,2e,0
224629,Fletcher Dairy,36.1505,-119.2883,12671 Ave 200,Tulare,Tulare,93274,5F,#N/A,#N/A,#N/A,10278,2023,800,0,250,150,0,0,0,1200,1,1,1
224683,Kampen Ranches Dairy,36.401,-119.3325,33689 Road 108,Visalia,Tulare,93291,5F,#N/A,#N/A,#N/A,10279,2023,0,0,0,0,0,0,0,0,1,1,0
224701,FM Ranch Dairy #1,36.0937,-119.327,16777 South I Drive,Tulare,Tulare,93274,5F,#N/A,#N/A,#N/A,10280,2023,0,212,341,366,0,0,0,919,1,1,0
224722,CHARLES VANDER KOOI DAIRY,36.4853,-120.0463,13695 ELKHORN AVENUE,RIVERDALE,Fresno,93656,5F,2022,NaN,DDRDP,11667,2023,3295,300,935,820,620,0,0,5970,1,1,1
224791,Top Line Dairy #1,36.2059,-119.6917,18386 13th Ave,Hanford,Kings,93230,5F,#N/A,#N/A,#N/A,10281,2023,1930,362,0,0,0,0,0,2292,3a,3a,1
225111,Foster Dairy Farms #2,37.6094,-120.7371,1530 Hall Road,Hickman,Stanislaus,95323,5S,#N/A,#N/A,#N/A,10282,2023,0,0,0,0,0,0,0,0,1,1,0
225112,Foster Dairy Farms #3,37.6029,-120.7557,1825 Hickman Road,Hickman,Stanislaus,95323,5S,#N/A,#N/A,#N/A,10283,2023,0,0,0,0,0,0,0,0,1,1,0
225113,Foster Dairy Farms #4,37.5583,-120.7463,5372 South Hickman Road,Denair,Stanislaus,95361,5S,#N/A,#N/A,#N/A,10284,2023,0,302,12,0,0,0,0,314,1,1,0
225114,Foster Dairy Farms #5,37.5749,-120.7554,4312 South Hickman Road,Denair,Stanislaus,95316,5S,#N/A,#N/A,#N/A,10285,2023,0,0,0,0,0,0,0,0,1,1,0
225115,Foster Dairy Farms #6,37.5218,-120.7778,6321 East Monte Vista Avenue,Denair,Stanislaus,95316,5S,#N/A,#N/A,#N/A,10286,2023,0,0,0,0,0,0,0,0,1,1,0
225117,Foster Farms #1,37.6252,-120.7291,14255 Lake Road,Hickman,Stanislaus,95323,5S,#N/A,#N/A,#N/A,11890,2023,0,0,0,0,0,0,0,0,2a,2a,0
225127,Foster Feed Yard,32.9021,-115.4234,3403  Casey Road,Brawley,Imperial,92227,7,#N/A,#N/A,#N/A,11867,2023,0,185,2026,2268,2059,807,1634,8979,1,1,0
225128,"Foster Feed Yard, Keystone",32.9185,-115.439,1350 East Keystone,Brawley,Imperial,92227,7,#N/A,#N/A,#N/A,11884,2023,0,136,1487,1664,1511,592,1199,6589,1,1,0
225177,Four Star Dairy,36.196,-119.5318,18886 4th Avenue,Hanford,Kings,93230,5F,#N/A,#N/A,#N/A,10287,2023,2390,280,390,280,284,0,0,3624,1,1,1
225236,Dream Dairy Heifer Ranch,36.378,-119.6353,6505 10th Avenue,Hanford,Kings,93230,5F,#N/A,#N/A,#N/A,10288,2023,0,0,0,0,0,0,0,0,1,1,0
225238,Henry A Garcia Feedlot,36.2113,-119.3874,2946 West Tulare Avenue,Tulare,Tulare,93274,5F,#N/A,#N/A,#N/A,10289,2023,0,0,0,0,0,0,0,0,1,1,0
225242,Fragoso Dairy #2,37.8429,-121.0188,13437 Brennan Road,Escalon,San Joaquin,95320,5S,#N/A,#N/A,#N/A,10290,2023,0,0,0,0,0,0,0,0,2e,2e,0
225255,Correia Family Dairy,37.1224,-120.968,26475 West Fahey Road,Gustine,Merced,95322,5S,#N/A,#N/A,#N/A,10291,2023,1144,167,332,283,213,129,0,2268,1,1,1
225259,15th Avenue Feedlot,36.3202,-119.7272,10522 15th Avenue,Hanford,Kings,93230,5F,#N/A,#N/A,#N/A,10292,2023,0,0,0,200,400,0,0,600,1,1,0
225260,former PLACER DAIRY FARMS (CLOSED),36.6433232,-120.178121,6264 South Placer Avenue,San Joaquin,Fresno,93660,5F,#N/A,#N/A,#N/A,11936,2023,0,0,0,0,0,0,0,0,2a,2e,0
225263,Frank J Borges Dairy,37.7285,-121.2054,8350 East Brady Rd,Manteca,San Joaquin,95337,5S,#N/A,#N/A,#N/A,10293,2023,1239,193,0,0,294,310,0,2036,1,1,1
225267,Arthur Leyendekker Dairy,36.4416,-119.3619,9001 Avenue 360,Visalia,Tulare,93291,5F,2023,NaN,DDRDP,10294,2023,1600,350,425,300,300,0,0,2975,1,1,1
225270,F & F Machado Farms,37.2925,-120.7569,15113 CA-140,Livingston,Merced,95334,5S,#N/A,#N/A,#N/A,11717,2023,0,0,1350,0,0,0,0,1350,1,1,0
225272,Former VIP Cattle,36.4292,-119.7621,21082 Cedar Street,Laton,Fresno,93242,5F,#N/A,#N/A,#N/A,10295,2023,0,0,0,0,0,0,0,0,2a,2a,0
225274,Frank N Rocha Dairy LP,37.8336,-121.0265,23125 East Lone Tree Road,Escalon,San Joaquin,95320,5S,#N/A,#N/A,#N/A,10296,2023,2100,300,1000,900,600,0,0,4900,1,1,1
225277,Vitor Borba #1 Dairy/Franco & Sons Dairy,36.3713,-119.595,7721 Flint Avenue,Hanford,Kings,93230,5F,#N/A,#N/A,#N/A,10297,2023,887,130,302,0,0,0,0,1319,1,1,1
225279,West Wing Dairy,36.171,-119.173,20997 Road 180,Strathmore,Tulare,93267,5F,#N/A,#N/A,#N/A,10298,2023,2234,252,336,0,0,0,0,2822,1,1,1
225291,Frank Souza Dairy - Euclid,33.9583,-117.6505,16185 Euclid Avenue,Chino,San Bernardino,91710,8,#N/A,#N/A,#N/A,10299,2023,0,0,0,0,1797,403,0,2200,1,1,0
225295,Da Silva Dairy Farms LP Dodds Heifer Ranch,37.8604,-121.0234,23335 Dodds Road,Escalon,San Joaquin,95320,5S,#N/A,#N/A,#N/A,11682,2023,0,200,800,600,300,0,0,1900,1,1,0
225300,Zonneveld Dairies Complex,36.4599,-119.7705,1560 Cerini Avenue,Laton,Fresno,93242,5F,#N/A,#N/A,#N/A,10300,2023,4723,819,5741,1009,4294,792,0,17378,1,1,1
225339,Frea Dairy LLC,36.6456,-119.8623,6205 South Brawley Avenue,Fresno,Fresno,93706,5F,#N/A,#N/A,#N/A,10301,2023,280,18,158,100,0,0,0,556,1,1,1
225342,Fred Rau Dairy,36.6025,-119.9832,10255 West Manning Avenue,Fresno,Fresno,93706,5F,#N/A,#N/A,#N/A,10302,2023,1394,199,442,530,231,164,0,2960,1,1,1
225346,Triangle S Dairy LLC,37.421,-120.5876,5600 West Palm Avenue,Winton,Merced,95388,5S,#N/A,#N/A,#N/A,10303,2023,980,190,385,340,140,218,0,2253,1,1,1
225383,Golden Star Feedlot (Former Leonardo Bros Dairy #2),36.5468,-119.7015,13019 South Clovis Avenue,Selma,Fresno,93662,5F,#N/A,#N/A,#N/A,10304,2023,0,0,285,0,0,0,0,285,1,1,0
225474,Friesian Farms Dairy,36.1071,-119.4515,5593 Avenue 176,Tulare,Tulare,93274,5F,2023,NaN,DDRDP,10305,2023,2608,292,773,1054,0,0,0,4727,1,1,1
225589,Furtado Brothers Dairy,37.0227084,-121.5244886,2676 Ferguson Rd,Gilroy,Santa Clara,95020,3,#N/A,#N/A,#N/A,11937,2023,0,0,0,0,0,0,0,0,3g,3g,0
225591,Furtado Farms Inc.,37.6093,-121.0565,3449 Paradise Road,Modesto,Stanislaus,95358,5S,#N/A,#N/A,#N/A,10306,2023,0,0,195,45,150,220,0,610,1,1,0
225611,Island Dairy,36.95018,-120.29486,13727 Rd 14,Madera,Madera,93637,5F,#N/A,#N/A,#N/A,11938,2023,0,0,0,0,0,0,0,0,2b,2b,0
225623,Fagundes Dairy,37.0941,-120.3289,23548 Road 12,Chowchilla,Madera,93610,5F,#N/A,#N/A,#N/A,10307,2023,2014,88,0,575,321,969,0,3967,1,1,1
225736,Faria Farms Inc. Dairy,36.0426,-119.2689,13927 Road 136,Tipton,Tulare,93272,5F,#N/A,#N/A,#N/A,10308,2023,0,275,458,520,376,85,0,1714,1,1,0
225993,Flint Dairy,36.3687,-119.5744,6511 Flint Avenue,Hanford,Kings,93230,5F,#N/A,#N/A,#N/A,10309,2023,2390,295,455,525,125,0,0,3790,1,1,1
226081,Fontes Dairy Farms-Dairy 2,36.44,-119.8949,20334 South Polk Avenue,Riverdale,Fresno,93656,5F,#N/A,#N/A,#N/A,10310,2023,2242,336,73,248,68,0,0,2967,1,1,1
226371,K & A Dairy,36.2121,-119.441,23343 Road 60,Tulare,Tulare,93274,5F,#N/A,#N/A,#N/A,10311,2023,0,0,0,0,0,0,0,0,2a,2e,0
226375,Frank S. Brown Co. Dairy,36.415,-119.8631,22045 South Valentine Avenue,Riverdale,Fresno,93656,5F,#N/A,#N/A,#N/A,10312,2023,1417,269,479,424,133,0,0,2722,1,1,1
226394,Fred Thommen Dairy,36.8369,-120.7612,53955 West Nees Avenue,Firebaugh,Fresno,93622,5F,#N/A,#N/A,#N/A,10313,2023,2000,290,600,600,300,300,0,4090,1,1,1
226528,G & G Cattle Co.-Pine (CR),33.952047,-117.651422,7065  Pine,Chino,San Bernardino,91710,8,#N/A,#N/A,#N/A,11939,2023,0,0,0,0,0,0,0,0,2e,2e,0
226530,G & G Cattlw Co.-Euclid (CR),33.990566,-117.646111,7280  Eucalyptus,Chino,San Bernardino,91710,8,#N/A,#N/A,#N/A,11940,2023,0,0,0,0,0,0,0,0,3g,3g,0
226533,Eden-Vale Dairy,36.3749,-119.8428,6370 21 1/2 Avenue,Lemoore,Kings,93245,5F,#N/A,#N/A,#N/A,10314,2023,0,0,0,0,0,0,0,0,1,1,0
226546,G-P Dairy,36.4441,-119.3791,8676 Avenue 360,Visalia,Tulare,93291,5F,2023,NaN,LCFS,10315,2023,1135,150,0,0,0,0,0,1285,1,1,1
226592,SD Farms II,34.0097,-117.6474,7220 Chino Avenue,Ontario,San Bernardino,91761,8,#N/A,#N/A,#N/A,10316,2023,1260,0,0,0,0,0,0,1260,1,1,1
226601,Roest Family Dairy,37.6732,-121.1592,2472 Gates Road,Modesto,Stanislaus,95358,5S,#N/A,#N/A,#N/A,10317,2023,1025,0,319,269,132,0,0,1745,1,1,1
226662,Midnight Farms,36.3383,-119.809,9240 CA-41,Lemoore,Kings,93245,5F,#N/A,#N/A,#N/A,10318,2023,0,0,621,0,0,0,0,621,1,1,0
226698,Gamlake Dairy,38.1721,-122.5108,7149 Lakeville Hwy.,Petaluma,Sonoma,94954,2,#N/A,#N/A,#N/A,10319,2023,0,0,45,51,46,58,0,200,2a,3a,0
226722,Garcia & Sons Dairy,36.2487,-119.762,15405 17th Avenue,Lemoore,Kings,93245,5F,#N/A,#N/A,#N/A,10320,2023,40,0,70,40,0,0,0,150,1,1,1
226723,Joe R. Garcia Dairy,36.4337,-119.7807,20677 East Street,Laton,Fresno,93242,5F,#N/A,#N/A,#N/A,10321,2023,1030,100,0,0,0,0,0,1130,1,1,1
226724,Fargo Dairy,36.3569,-119.5749,6571 Fargo Avenue,Hanford,Kings,93274,5F,#N/A,#N/A,#N/A,10322,2023,505,40,10,25,0,0,0,580,1,1,1
226725,Hacienda Feedlot,35.250578,-118.758369,NW corner of Buena Vista Blvd & General Beale Rd,Kern County,Kern,93203,5F,#N/A,#N/A,#N/A,11941,2023,0,0,0,0,0,0,0,0,2a,3g,0
226726,GARCIA GRANGEVILLE Heifer Facility,36.3422091,-119.5566467,5529  GRANGEVILLE BOULEVARD,Hanford,Kings,93230,5F,#N/A,#N/A,#N/A,11942,2023,0,0,0,0,0,0,0,0,2e,2e,0
226776,G H Dairy #4b,33.9976,-117.6361,7721 Edison Avenue,Ontario,San Bernardino,91762,8,#N/A,#N/A,#N/A,10323,2023,0,0,101,104,0,0,0,205,2c,3a,0
226790,Gary Nicholson Dairy,40.902,-124.1064,2126 Mad River Road,Arcata,Humboldt,95521,1,#N/A,#N/A,#N/A,10324,2023,0,0,0,0,0,0,0,0,2c,2c,0
226805,Gastellubery Heifer Ranch,34.0149,-117.6416,13144 South Campus Avenue,Ontario,San Bernardino,91761,8,#N/A,#N/A,#N/A,10325,2023,0,0,0,0,0,0,0,0,2a,2a,0
226858,Drakes View Dairy LLC,37.9993,-122.9943,26450 Sir Francis Drake,Inverness,Marin,94937,2,#N/A,#N/A,#N/A,10326,2023,220,35,48,34,20,13,0,370,1,1,1
226905,Double G Dairy,37.6598,-121.1143,6555 Blue Gum Road,Modesto,Stanislaus,95358,5S,#N/A,#N/A,#N/A,10327,2023,1000,100,675,225,0,0,0,2000,1,1,1
227023,J & B Dairy,37.7936,-120.841,8673 Rodden Road,Oakdale,Stanislaus,95361,5S,#N/A,#N/A,#N/A,10328,2023,571,67,80,80,60,65,0,923,3a,3a,1
227025,Bellanave Ranch LLC,35.2478,-119.1572,14461 Taft Highway,Bakersfield,Kern,93311,5F,2021,NaN,DDRDP,10329,2023,5278,895,1294,1501,1591,1725,0,12284,1,1,1
227029,George Grossi & Son Dairy,38.1175,-122.6514,3550 Novato Blvd.,Novato,Marin,94947,2,#N/A,#N/A,#N/A,10330,2023,0,0,0,0,0,0,0,0,1,1,0
227048,former GEORGESON DAIRY (CLOSED),36.4968324,-119.844589,16496 South Marks Avenue,Caruthers,Fresno,93609,5F,#N/A,#N/A,#N/A,11943,2023,0,0,0,0,0,0,0,0,2a,2e,0
227076,Gerben Leyendekker Dairy,36.4423,-119.3819,8200 Avenue 360,Visalia,Tulare,93291,5F,2022,NaN,DDRDP,10331,2023,3340,520,350,900,0,0,0,5110,1,1,1
227121,F & D Giacomazzi Farms,36.3348,-119.565,9624 6th Avenue,Hanford,Kings,93230,5F,#N/A,#N/A,#N/A,10332,2023,0,0,425,450,0,0,0,875,1,1,0
227122,Giacomini Dairy #1,38.068628,-122.809585,702  C,Point Reyes Station,Marin,94956,2,#N/A,#N/A,#N/A,11944,2023,0,0,0,0,0,0,0,0,3g,3g,0
227158,Gilbert Teixeira Dairy,37.5458,-120.8814,5601 Mountain View Road,Turlock,Stanislaus,95382,5S,#N/A,#N/A,#N/A,10333,2023,325,60,120,75,50,45,0,675,1,1,1
227160,Da Silva Dairy Farms LLC Heifer Ranch,37.8547,-121.0384,22269 E Mariposa,Escalon,San Joaquin,95320,5S,#N/A,#N/A,#N/A,11684,2023,0,0,160,0,0,0,0,160,1,1,0
227211,GJ Silva,37.4654,-120.9353,3107 South Prairie Flower Road,Turlock,Stanislaus,95380,5S,#N/A,#N/A,#N/A,10334,2023,2500,300,0,300,450,525,0,4075,1,1,1
227391,Del-Arco Dairy,36.0093,-119.4672,4738 Avenue 120,Corcoran,Tulare,93212,5F,#N/A,#N/A,#N/A,10335,2023,1759,171,235,0,0,0,0,2165,1,1,1
227413,L & J Heifer Ranch (Closed),36.4238,-119.9057,21505 South Hayes Avenue,Riverdale,Fresno,93656,5F,#N/A,#N/A,#N/A,10336,2023,0,0,0,0,0,0,0,0,2a,2a,0
227497,Sutter Land LLC,36.5081,-119.8543,15669 South Valentine Avenue,Caruthers,Fresno,93609,5F,#N/A,#N/A,#N/A,10337,2023,0,0,0,0,0,0,0,0,2b,2b,0
227524,"Western Milling LLC, dba Goshen West Ranch",36.3574,-119.4439,31231 Rd 60,Visalia,Tulare,93291,5F,#N/A,#N/A,#N/A,11766,2023,0,0,0,0,0,0,4475,4475,1,1,0
227597,Double D Dairy #2,37.518,-120.9286,3636 East Monte Vista Road,Ceres,Stanislaus,95307,5S,#N/A,#N/A,#N/A,10338,2023,570,0,1000,0,0,0,0,1570,1,1,1
227651,T5 Farm,34.0005,-117.6194,13948 Walker Avenue,Ontario,San Bernardino,91762,8,#N/A,#N/A,#N/A,10339,2023,0,0,0,0,0,0,0,0,2a,2a,0
227673,Goyenetche Dairy,35.4148,-119.3789,6041 Brandt Road,Buttonwillow,Kern,93206,5F,2022,NaN,DDRDP,10340,2023,3981,392,1577,1205,419,200,0,7774,1,1,1
227860,Green Acres Dairy/El Dorado Dairy #1,34.01185801,-117.6434264,7322 Chino Avenue,Ontario,San Bernardino,91761,8,#N/A,#N/A,#N/A,10341,2023,400,0,0,0,0,0,0,400,1,1,1
227866,Green Road,32.9594,-115.3233,4204  Green Road,Brawley,Imperial,92227,7,#N/A,#N/A,#N/A,11868,2023,0,66,722,808,734,288,582,3200,1,1,0
227868,former GREEN TOP DAIRY (CLOSED),36.6552503,-119.8732263,5519 South Blythe Avenue,Fresno,Fresno,93706,5F,#N/A,#N/A,#N/A,11945,2023,0,0,0,0,0,0,0,0,2a,2e,0
227873,Green Valley Dairy,36.6957,-120.0611,2685 South Madera Avenue,Kerman,Fresno,93630,5F,#N/A,#N/A,#N/A,10342,2023,1800,350,700,825,400,400,0,4475,1,1,1
227885,"Seifert Dairy II, LP",38.2314,-121.2176,8220 East Liberty Road,Galt,San Joaquin,95632,5S,#N/A,#N/A,#N/A,10343,2023,0,0,0,0,0,0,0,0,2a,2a,0
227993,Griffioen Dairy LP,36.4582,-119.398,7901 Avenue 368,Dinuba,Tulare,93618,5F,#N/A,#N/A,#N/A,10344,2023,1768,161,391,410,0,0,0,2730,1,1,1
228144,Vander Meulen Dairy,37.8416,-121.0548,20250 East Avena Road,Escalon,San Joaquin,95320,5S,#N/A,#N/A,#N/A,10345,2023,0,0,100,100,0,0,0,200,1,1,0
228577,Frank Gwerder Dairy,37.6276,-121.1221,1007 South Hart Road,Modesto,Stanislaus,95351,5S,#N/A,#N/A,#N/A,10346,2023,760,100,175,250,100,0,0,1385,1,1,1
228775,George Tevelde Dairy,37.8588,-120.968,27815 East Dodds Road,Escalon,San Joaquin,95320,5S,#N/A,#N/A,#N/A,10347,2023,2520,342,884,912,500,580,0,5738,1,1,1
229007,Golden West Dairy,36.4269,-119.3042,12031 Avenue 352,Visalia,Tulare,93291,5F,#N/A,#N/A,#N/A,10348,2023,1124,176,516,390,209,0,0,2415,1,1,1
229380,Gorzeman Cattle (Dairy),36.039,-119.4087,13804 Road 72,Tipton,Tulare,93272,5F,#N/A,#N/A,#N/A,10349,2023,0,0,1159,0,0,0,0,1159,1,1,0
229392,Hynes Dairy,36.2492,-119.4005,4497 North Colpien Road,Tulare,Tulare,93274,5F,#N/A,#N/A,#N/A,10350,2023,1560,282,633,589,307,250,0,3621,1,1,1
229393,Gordon Dairy #3,33.9949,-117.6356,14213 Bon View Avenue,Ontario,San Bernardino,91762,8,#N/A,#N/A,#N/A,10351,2023,300,50,29,21,14,6,0,420,1,1,1
229400,Blue Moon Farms,36.0289,-119.3987,13213 Road 80,Tipton,Tulare,93272,5F,#N/A,#N/A,#N/A,10352,2023,1542,170,585,508,390,151,0,3346,1,1,1
229449,H & P Dairy,35.2073,-118.9383,5021 East Bear Mountain Boulevard,Bakersfield,Kern,93307,5F,#N/A,#N/A,#N/A,10353,2023,2388,381,758,691,349,345,0,4912,1,1,1
229450,GH Dairy 3,33.9905,-117.6162,8643 Eucalyptus Avenue,Ontario,San Bernardino,91762,8,#N/A,#N/A,#N/A,10354,2023,0,0,0,0,0,0,0,0,2a,2a,0
229503,GH Dairy #1,33.9904,-117.6183,8541 Eucalyptus Avenue,Ontario,San Bernardino,91762,8,#N/A,#N/A,#N/A,10355,2023,0,0,0,0,0,0,0,0,2a,2a,0
229549,DJ Dairy,36.400988,-119.602509,8025  Excelsior Avenue,Hanford,Kings,93230,5F,#N/A,#N/A,#N/A,11946,2023,0,0,0,0,0,0,0,0,2a,2e,0
229610,Chino Valley Heifer Ranch,34.0016,-117.6376,13752 Bon View Avenue,Ontario,San Bernardino,91762,8,#N/A,#N/A,#N/A,10356,2023,0,0,643,657,0,0,1129,2429,1,1,0
229612,Hansen & Sons Dairy,37.038,-120.3044,13348 Avenue 20,Chowchilla,Madera,93610,5F,#N/A,#N/A,#N/A,10357,2023,312,42,12,13,135,40,0,554,1,1,1
229616,Amos Brothers Dairy,38.4491,-122.8013,3420 Guerneville Road,Santa Rosa,Sonoma,95401,1,#N/A,#N/A,#N/A,10358,2023,421,59,129,96,146,69,0,920,1,1,1
229683,Ontario Ranch Holsteins #1,33.9842,-117.6279,14848 Grove Avenue,Ontario,San Bernardino,91762,8,#N/A,#N/A,#N/A,10359,2023,250,0,9,6,0,0,0,265,3a,3a,1
229706,Harnden Ranches,40.915452,-124.120345,862  Mad River Road,Arcata,Humboldt,95521,1,#N/A,#N/A,#N/A,11947,2023,0,0,0,0,0,0,0,0,3g,3g,0
229712,Harold Dragt & Sons Dairy #2,36.3362,-119.4927,9455 Second Avenue,Hanford,Kings,93230,5F,#N/A,#N/A,#N/A,10360,2023,234,29,44,0,0,0,0,307,1,1,1
229741,Harris Ranch Feeding Company,36.3059,-120.2582,29475 Fresno Coalinga Road,Coalinga,Fresno,93210,5F,#N/A,#N/A,#N/A,11794,2023,0,0,0,0,0,0,102314,102314,1,1,0
229761,J & D Star Dairy 1,33.9832,-117.6237,8315 Merrill Avenue,Chino,San Bernardino,91710,8,#N/A,#N/A,#N/A,10361,2023,0,0,0,0,0,0,0,0,2a,2e,0
229891,Los Robles Dairy,36.1037,-119.0909,17393 Road 216,Porterville,Tulare,93257,5F,#N/A,#N/A,#N/A,10362,2023,0,0,0,0,0,0,0,0,2b,2b,0
229987,Sunnyvale Dairy,36.1531,-119.5171,2608 Avenue 199,Tulare,Tulare,93274,5F,#N/A,#N/A,#N/A,10363,2023,0,0,0,0,0,0,0,0,1,1,0
229993,Hein Hettinga/A & H Dairy 1&2,34.6023,-117.5933,3400 El Mirage Road,El Mirage,San Bernardino,92301,6V,#N/A,#N/A,#N/A,10364,2023,0,0,0,0,0,0,0,0,1,1,0
230003,former DREAM DAIRY (closed),36.6927,-119.8627,4050 West North Avenue,Fresno,Fresno,93706,5F,#N/A,#N/A,#N/A,10365,2023,0,0,0,0,0,0,0,0,2a,2e,0
230054,Hendrix Dairy,37.5517,-121.0465,2901 West Keyes Road,Modesto,Stanislaus,95358,5S,#N/A,#N/A,#N/A,10366,2023,0,0,0,0,0,0,0,0,2c,2c,0
230065,Joe Henriques Dairy,37.6381,-121.1466,8255 Maze Boulevard,Modesto,Stanislaus,95358,5S,#N/A,#N/A,#N/A,10367,2023,243,37,135,90,78,75,0,658,1,1,1
230068,P & G Wassenaar Dairy,34.0169,-117.6152,13051 Baker,Ontario,San Bernardino,91761,8,#N/A,#N/A,#N/A,10368,2023,0,0,0,0,0,0,0,0,2a,2a,0
230074,Bosch Dairy #2,34.0047,-117.6068,9029 Schaefer Avenue,Ontario,San Bernardino,91761,8,#N/A,#N/A,#N/A,10369,2023,500,50,0,0,0,0,0,550,1,1,1
230075,Henry A. Garcia Dairy,36.1523,-119.2933,12521 Avenue 200,Tulare,Tulare,93274,5F,#N/A,#N/A,#N/A,10370,2023,885,195,224,0,0,0,0,1304,1,1,1
230078,East View Dairy,36.4288,-119.3396,10485 Avenue 352,Visalia,Tulare,93291,5F,#N/A,#N/A,#N/A,10371,2023,1046,163,463,289,173,0,0,2134,1,1,1
230082,Henry Veenendaal Dairy,36.2993,-119.5261,3678 Houston Avenue,Hanford,Kings,93230,5F,#N/A,#N/A,#N/A,10372,2023,1010,100,300,100,0,0,0,1510,1,1,1
230112,HD Ranch,38.4184,-121.738,7815 Midway Road,Dixon,Solano,95620,5S,2026,NaN,DDRDP,10373,2023,3854,775,1580,1143,688,780,0,8820,1,1,1
230113,Heritage Dairy,36.1378,-119.2199,15651 Avenue 192 Avenue,Tulare,Tulare,93274,5F,#N/A,#N/A,#N/A,10374,2023,1657,224,506,316,0,0,0,2703,1,1,1
230143,Herman De Jong Dairy,33.6285,-117.2949,31910 Corydon Road,Wildomar,Riverside,92595,8,#N/A,#N/A,#N/A,10375,2023,68,10,14,11,7,3,0,113,1,1,1
230169,PB Heifer Ranch,37.7,-121.1609,4355 N. Gates Rd.,Modesto,Stanislaus,95358,5S,#N/A,#N/A,#N/A,11718,2023,0,0,0,0,750,4750,0,5500,1,1,0
230191,Hettinga Dairy - Eucalyptus 2,33.99,-117.6035,9279 Eucalyptus Avenue,Ontario,San Bernardino,91762,8,#N/A,#N/A,#N/A,10376,2023,0,0,0,0,0,0,0,0,2a,2a,0
230192,Hettinga Farms Dairy,36.0095,-119.2727,13400 Avenue 120,Pixley,Tulare,93256,5F,2021,NaN,DDRDP,10377,2023,2953,281,1089,803,386,410,0,5922,1,1,1
230193,Hettinga Dairy - San Jacinto,33.8198,-117.0336,1701 N Warren Road,San Jacinto,Riverside,92582,8,#N/A,#N/A,#N/A,10378,2023,0,0,0,0,3430,770,0,4200,1,1,0
230194,Brawley Heifer Ranch,33.0161,-115.5614,5004  Brandt Road,Brawley,Imperial,92227,7,#N/A,#N/A,#N/A,11883,2023,0,0,0,0,0,0,0,0,1,1,0
230195,Hettinga Ranch,33.8556,-117.3906,15250 El Sobrante Road,Riverside,Riverside,92503,8,#N/A,#N/A,#N/A,10379,2023,0,0,482,493,0,0,0,975,1,1,0
230360,Highstreet Dairy,36.2249,-119.2264,15503 Avenue 240,Tulare,Tulare,93274,5F,#N/A,#N/A,#N/A,10380,2023,0,589,1196,0,0,0,0,1785,1,1,0
230391,Hillcrest Dairy,37.3146,-120.3065,1901 North Hayden Road,Le Grand,Merced,95322,5S,#N/A,#N/A,#N/A,10381,2023,4000,750,1400,500,1400,0,0,8050,1,1,1
230418,Hilltop Holsteins,37.8562,-120.9099,4900 East Dodds Road,Oakdale,Stanislaus,95361,5S,#N/A,#N/A,#N/A,10382,2023,1393,141,375,217,0,0,0,2126,1,1,1
230424,Hillview Cattle & Farms,36.6507,-120.0133,12250 West Lincoln Avenue,Fresno,Fresno,93706,5F,#N/A,#N/A,#N/A,11799,2023,0,0,0,0,0,0,10,10,2c,3a,0
230428,"Hilmar Holsteins, Inc.",37.3822,-120.8845,21859 Crane Avenue,Hilmar,Merced,95324,5S,#N/A,#N/A,#N/A,10383,2023,2200,400,1300,1200,400,400,0,5900,1,1,1
230438,Hinkley Dairy,34.9056,-117.1292,24333 Community Blvd,Hinkley,San Bernardino,92347,6B,#N/A,#N/A,#N/A,11678,2023,950,200,6,4,3,2,12,1177,3b,3b,1
230493,Hoffman Dairy,36.1764,-119.2597,21346 Road 140,Tulare,Tulare,93274,5F,#N/A,#N/A,#N/A,10384,2023,0,0,0,517,0,0,0,517,1,1,0
230507,Hogg Bros. Dairy No.2,34.01447,-117.614754,13129  Baker,Ontario,San Bernardino,91761,8,#N/A,#N/A,#N/A,11948,2023,0,0,0,0,0,0,0,0,2e,2e,0
230509,Rose Trust,36.383832,-119.730032,6050  15th Avenue,Hanford,Kings,93230,5F,#N/A,#N/A,#N/A,11949,2023,0,0,0,0,0,0,0,0,2a,2a,0
230522,Holgersen Dairy,40.669,-124.1965,5231 Tompkins Hill Road,Loleta,Humboldt,95551,1,#N/A,#N/A,#N/A,10385,2023,131,18,39,28,31,15,0,262,1,1,1
230542,Hollandia Farms Dairy,36.2087,-119.5965,7905 Kansas Avenue,Hanford,Kings,93230,5F,2021,NaN,DDRDP,10386,2023,2466,277,1009,1365,472,0,0,5589,1,1,1
230544,Holland's Dairy,36.3423,-119.5217,3533 Grangeville Boulevard,Hanford,Kings,93230,5F,#N/A,#N/A,#N/A,10387,2023,1214,170,624,487,151,0,0,2646,1,1,1
230580,Holmes Brothers Dairy,37.8185,-121.032,16048 Sexton Road,Escalon,San Joaquin,95320,5S,#N/A,#N/A,#N/A,10388,2023,0,0,0,0,0,0,0,0,2a,2e,0
230587,Holtville Cattle Feed,32.8112,-115.4129,1440 East Zenos Road,Holtville,Imperial,92250,7,#N/A,#N/A,#N/A,11859,2023,0,97,1060,1187,1078,423,855,4700,1,1,0
230622,Chino Valley Heifer Ranch,33.9696,-117.594,6313 Archibald Street,Corona,Riverside,92880,8,#N/A,#N/A,#N/A,10389,2023,0,0,0,0,0,0,0,0,2a,2a,0
232006,William Hunger Ranches Dairy,36.9996,-120.5857,18146 Dixon Road,Dos Palos,Fresno,93620,5F,#N/A,#N/A,#N/A,10390,2023,0,0,0,0,0,0,0,0,2a,2e,0
232207,Iest Family Farms Dairy,36.9504,-120.2801,14576 Avenue 14,Madera,Madera,93637,5F,#N/A,#N/A,#N/A,10391,2023,3690,565,2025,1910,735,715,0,9640,1,1,1
232348,Larry Inderbitzen Farms,37.605,-121.1211,6930 Paradise Road,Modesto,Stanislaus,95358,5S,#N/A,#N/A,#N/A,10392,2023,565,74,105,190,120,80,0,1134,1,1,1
232636,Iraizoz Dairy,36.6576,-119.3772,5265 South Crawford Avenue,Reedley,Fresno,93654,5F,#N/A,#N/A,#N/A,10393,2023,0,0,0,0,0,0,0,0,2a,2c,0
232639,Knevelbaard Dairy,36.2033,-119.2544,14229 Avenue 228,Tulare,Tulare,93274,5F,#N/A,#N/A,#N/A,10394,2023,740,105,125,460,0,0,0,1430,1,1,1
232717,Manuel Teixeira Dairy,37.5647,-121.1575,8937 West Grayson Road,Modesto,Stanislaus,95358,5S,#N/A,#N/A,#N/A,10395,2023,600,60,80,275,275,100,0,1390,3a,3a,1
233056,Tristar Dairy,36.1117,-119.2973,12212 Avenue 176,Tulare,Tulare,93274,5F,#N/A,#N/A,#N/A,10396,2023,1575,275,400,150,0,0,0,2400,1,1,1
233059,J & B Dairy,37.6857,-120.8514,3037 Albers Road,Modesto,Stanislaus,95357,5S,#N/A,#N/A,#N/A,10397,2023,0,0,0,0,0,0,0,0,2a,2e,0
233060,David Vander Schaaf Dairy,35.287,-118.9362,7524 South Fairfax Road,Bakersfield,Kern,93307,5F,#N/A,#N/A,#N/A,10398,2023,1883,297,0,0,0,0,0,2180,1,1,1
233072,P & D Dairy #2,33.9791,-117.6069,15133 Carpenter Avenue,Ontario,San Bernardino,91710,8,#N/A,#N/A,#N/A,10399,2023,0,0,0,0,0,0,0,0,2a,2a,0
233073,J & D Wilson & Sons Dairy,36.4314,-120.0081,11720 West Mt. Whitney Avenue,Riverdale,Fresno,93656,5F,2022,NaN,DDRDP,10400,2023,3500,250,200,600,500,200,0,5250,1,1,1
233077,Double Oak #2 Dairy,36.2425,-119.2965,3231 North Oakmore Street,Tulare,Tulare,93274,5F,#N/A,#N/A,#N/A,10401,2023,0,0,0,0,0,0,0,0,2a,2a,0
233078,Frank Mendonca Heifer Ranch,36.3576,-119.7998,19090 Fargo Avenue,Lemoore,Kings,93245,5F,#N/A,#N/A,#N/A,10402,2023,0,0,0,0,0,0,0,0,2b,2c,0
233079,J & F Martins Dairy,36.3628,-119.709,7622 14th Avenue,Hanford,Kings,93230,5F,#N/A,#N/A,#N/A,10403,2023,0,0,0,0,0,0,0,0,2b,2e,0
233101,Legacy Dairy,36.1587,-119.4933,20385 Road 36,Tulare,Tulare,93274,5F,#N/A,#N/A,#N/A,10404,2023,0,0,0,0,0,0,0,0,1,1,0
233121,J & R Dairy,35.2063,-119.0502,4403 Bear Mountain Boulevard,Bakersfield,Kern,93313,5F,#N/A,#N/A,#N/A,10405,2023,2760,469,526,416,0,0,0,4171,1,1,1
233123,Maya Dairy,35.4831,-119.4408,18451 Wildwood Road,Buttonwillow,Kern,93206,5F,2022,NaN,DDRDP,10406,2023,4550,475,1405,1120,825,0,0,8375,1,1,1
233125,FM Ranch #3,36.0753,-119.3158,1472 Highway 99,Tipton,Tulare,93272,5F,#N/A,#N/A,#N/A,10407,2023,395,73,218,184,0,0,0,870,1,1,1
233130,3 Machados Dairy,37.1858,-120.5488,3260 West Sandy Mush Road,Merced,Merced,95340,5S,2026,NaN,DDRDP,10408,2023,2240,285,550,385,485,0,0,3945,1,1,1
233131,Homestead Dairy,36.4293,-119.3399,10178 Ave 352,Visalia,Tulare,93291,5F,#N/A,#N/A,#N/A,10409,2023,877,277,381,0,0,0,0,1535,1,1,1
233181,Double N Dairy II,36.3953,-119.7816,18104 Everett Avenue,Laton,Kings,93242,5F,#N/A,#N/A,#N/A,10410,2023,815,100,0,0,125,50,0,1090,1,1,1
233193,J & B Dairy,34.0189,-117.6012,9309 Riverside Drive,Ontario,San Bernardino,91761,8,#N/A,#N/A,#N/A,10411,2023,0,0,0,0,0,0,0,0,2c,2e,0
233268,DeMelo Dairy,38.2665,-121.3177,10145 Pringle Avenue,Galt,Sacramento,95632,5S,#N/A,#N/A,#N/A,10412,2023,0,0,80,75,0,0,0,155,1,1,0
233271,Jaques & Silva Dairy,36.3276,-119.571,6269 Lacey Blvd,Hanford,Kings,93230,5F,#N/A,#N/A,#N/A,10413,2023,1215,185,305,220,150,0,0,2075,1,1,1
233274,JD Mello Dairy,36.3421,-119.7369,15609 Grangeville Boulevard,Hanford,Kings,93230,5F,#N/A,#N/A,#N/A,10414,2023,980,100,500,950,330,350,0,3210,1,1,1
233279,Double M Dairy LLC,38.016,-122.9882,25680 Sir Francis Drake Blvd,Inverness,Marin,94937,2,#N/A,#N/A,#N/A,10415,2023,180,13,58,42,24,16,0,333,1,1,1
233290,J & F Martins Dairy #2,36.4236,-119.7903,381 East Wood Avenue,Laton,Fresno,93242,5F,#N/A,#N/A,#N/A,10416,2023,435,35,270,180,0,0,0,920,1,1,1
233299,Bill Idsinga Dairy,36.2984,-119.5398,4595 Houston Avenue,Hanford,Kings,93230,5F,#N/A,#N/A,#N/A,10417,2023,993,144,417,429,0,0,0,1983,1,1,1
233302,Jai Alai Dairy,35.118,-118.8758,26101 South Edison Road,Arvin,Kern,93203,5F,#N/A,#N/A,#N/A,10418,2023,0,0,0,0,0,0,0,0,2e,2e,0
233320,Jack Dei Dairy,38.4119,-122.8247,831 High School Road,Sebastopol,Sonoma,95472,1,#N/A,#N/A,#N/A,10419,2023,0,0,66,67,41,9,0,183,1,1,0
233353,Jackson Feedlot,32.7306,-115.5774,495  West Heber Rd,El Centro,Imperial,92243,7,#N/A,#N/A,#N/A,11865,2023,0,140,1524,1706,1549,608,1229,6756,1,1,0
233375,former John Jacobi Dairy,36.5303,-119.3339,10723 Avenue 408,Dinuba,Tulare,93618,5F,#N/A,#N/A,#N/A,10420,2023,0,0,0,0,0,0,0,0,2a,2e,0
233400,Jake Bosma Dairy,33.998566,-117.627821,14049  Grove,Chino,San Bernardino,91762,8,#N/A,#N/A,#N/A,11950,2023,0,0,0,0,0,0,0,0,2e,3g,0
233401,DG Farms,35.9622,-119.2277,15419 Avenue 96,Pixley,Tulare,93256,5F,#N/A,#N/A,#N/A,10421,2023,2183,258,913,945,379,0,0,4678,1,1,1
233402,Westwood Farms LLC (Dairy),36.2044,-119.4336,6194 Avenue 228,Tulare,Tulare,93274,5F,#N/A,#N/A,#N/A,10422,2023,1335,117,643,346,0,0,0,2441,1,1,1
233404,Fragoso Dairy #2,37.8309,-121.0161,14691 South Brennan Road,Escalon,San Joaquin,95320,5S,#N/A,#N/A,#N/A,10423,2023,350,50,120,120,60,50,0,750,1,1,1
233436,James Jongsma Dairy,35.9567,-119.2106,9229 Road 164,Pixley,Tulare,93256,5F,#N/A,#N/A,#N/A,10424,2023,2447,297,487,97,585,243,0,4156,1,1,1
233438,Caetano Dairy,36.4755,-119.5286,100 North 4th Avenue,Kingsburg,Kings,93631,5F,#N/A,#N/A,#N/A,10425,2023,0,0,0,0,0,0,0,0,2b,2c,0
233474,Jane De Vries Dairy,34.004625,-117.62783,13715  Grove,Ontario,San Bernardino,91761,8,#N/A,#N/A,#N/A,11951,2023,0,0,0,0,0,0,0,0,3g,3g,0
233488,Back Road Dairy,36.1895,-119.5111,22081 Road 28,Tulare,Tulare,93274,5F,#N/A,#N/A,#N/A,10426,2023,1707,244,256,0,0,0,0,2207,1,1,1
233539,JDS Ranch Dairy,35.7558,-119.413,27333 Garces,Wasco,Kern,93280,5F,2026,NaN,DDRDP,10427,2023,4000,500,1400,4000,950,0,0,10850,3a,3a,1
233543,former COSTA VIEW FARMS DAIRY (CLOSED),37.01082361,-120.3008847,13442  Avenue 18,Chowchilla,Madera,93610,5F,#N/A,#N/A,#N/A,11952,2023,0,0,0,0,0,0,0,0,2a,2a,0
233588,Jelle Van Der Hoek,37.6416,-121.1588,337 North Gates Road,Modesto,Stanislaus,95358,5S,#N/A,#N/A,#N/A,10428,2023,650,50,270,210,90,90,0,1360,1,1,1
233613,Silva & Sons Dairy,36.4011,-119.6067,8331 Excelsior Avenue,Hanford,Kings,93230,5F,#N/A,#N/A,#N/A,10429,2023,500,45,50,48,0,0,0,643,1,1,1
233624,Jer-Z-Boyz Ranch #1,35.9932,-119.3265,11001 Ave 112,Pixley,Tulare,93256,5F,#N/A,#N/A,#N/A,10430,2023,4074,633,1409,1730,0,0,0,7846,1,1,1
233625,former Paesano Dairy,35.7277,-119.2589,11699 Stradley Avenue,Mcfarland,Kern,93250,5F,#N/A,#N/A,#N/A,10431,2023,0,0,0,0,0,0,0,0,2a,2a,0
233668,Generations Dairy,36.6459,-120.0658,6043 South Madera Avenue,Kerman,Fresno,93630,5F,#N/A,#N/A,#N/A,10432,2023,1437,138,225,0,0,0,0,1800,1,1,1
233674,Jim Bakker Dairy,36.3357,-119.4371,30030 Road 60,Visalia,Tulare,93291,5F,#N/A,#N/A,#N/A,10433,2023,772,164,410,0,0,0,0,1346,1,1,1
233675,Jim Bootsma Jr Dairy,33.8554,-117.084,33100 Fernandez Road,Nuevo,Riverside,92567,8,#N/A,#N/A,#N/A,10434,2023,1500,245,258,190,0,0,0,2193,1,1,1
233682,Brian James Jongsma Dairy,36.0825,-119.4268,16017 Road 64,Tipton,Tulare,93272,5F,#N/A,#N/A,#N/A,10435,2023,1969,295,687,609,0,0,0,3560,1,1,1
233683,Jim Nyenhuis Dairy,33.9759,-117.616,8711 Remington,Chino,San Bernardino,91710,8,#N/A,#N/A,#N/A,10436,2023,0,0,0,0,0,0,0,0,2a,2c,0
233685,Jim Riebli Dairy,38.2665,-122.6856,295 Rainsville Road,Petaluma,Sonoma,94952,2,#N/A,#N/A,#N/A,10437,2023,171,24,73,52,31,19,0,370,1,1,1
233712,Robert Vander Eyk Dairy,35.9763,-119.3623,9441 Avenue 104,Pixley,Tulare,93256,5F,2018,NaN,DDRDP,10438,2023,2671,249,1450,861,0,0,0,5231,1,1,1
233713,JLT Ranch,38.2255,-122.5384,601 Stage Gulch Road,Petaluma,Sonoma,94954,2,#N/A,#N/A,#N/A,10439,2023,307,43,117,84,49,30,0,630,1,1,1
233729,Mancebo Holsteins #2 Dairy,36.2211,-119.2598,23758 Road 140,Tulare,Tulare,93274,5F,#N/A,#N/A,#N/A,10440,2023,750,100,100,100,0,0,0,1050,1,1,1
233732,Joaquin Toledo Dairy,36.1112,-119.4873,3800 Avenue 176,Corcoran,Tulare,93212,5F,#N/A,#N/A,#N/A,10441,2023,0,0,0,0,0,0,0,0,2b,2b,0
233734,Joao & Maria Salvador Dairy,37.5223,-121.0132,1501 West Monte Vista Road,Ceres,Stanislaus,95307,5S,#N/A,#N/A,#N/A,10442,2023,476,70,155,138,80,90,0,1009,1,1,1
233735,Jordao Dairy,37.4364,-120.9586,6025 South Central Avenue,Turlock,Stanislaus,95380,5S,#N/A,#N/A,#N/A,10443,2023,873,88,252,398,173,152,0,1936,1,1,1
233742,Delta View Farms #2,36.3386,-119.4484,30297 Road 56,Visalia,Tulare,93291,5F,#N/A,#N/A,#N/A,10444,2023,0,0,0,400,0,0,0,400,1,1,0
233743,Joe Avis Dairy,38.339,-121.4528,4220 Point Pleasant Road,Elk Grove,Sacramento,95757,5S,#N/A,#N/A,#N/A,10445,2023,0,0,0,25,0,0,0,25,1,1,0
233744,Joe B. Pacheco Dairy,36.2398,-119.5741,16025 6 1/2 Avenue,Hanford,Kings,93230,5F,#N/A,#N/A,#N/A,10446,2023,1090,110,200,200,0,0,0,1600,1,1,1
233745,Joe Bertao & Sons Dairy (Closed),37.0544,-120.3413,11270 Avenue 21,Chowchilla,Madera,93610,5F,#N/A,#N/A,#N/A,10447,2023,0,0,0,0,0,0,0,0,2a,2a,0
233747,John Brasil Facility,37.447,-120.9627,9730 West Bradbury Road,Turlock,Stanislaus,95380,5S,#N/A,#N/A,#N/A,10448,2023,0,0,0,0,0,0,0,0,2b,2b,0
233749,Vierra Dairy Farms #4/Cross Creek Dairy,37.4038,-120.9051,7965 Washington Road,Hilmar,Merced,95324,5S,#N/A,#N/A,#N/A,10449,2023,0,502,268,258,0,0,0,1028,1,1,0
233751,Golden Star Dairy,36.5046,-119.8474,15959 South Marks Avenue,Caruthers,Fresno,93609,5F,#N/A,#N/A,#N/A,10450,2023,0,0,100,100,0,0,0,200,1,1,0
233754,JOE V. CARDOZA TRUST DAIRY,36.1369,-119.3961,19199 Road 80,Tulare,Tulare,93274,5F,#N/A,#N/A,#N/A,10451,2023,0,0,0,368,0,0,0,368,1,1,0
233757,Double Cross #2,37.4477,-120.8252,18637 East Bradbury Road,Turlock,Merced,95380,5S,#N/A,#N/A,#N/A,10452,2023,658,53,11,857,0,0,0,1579,1,1,1
233760,Dairy Goddess Farms,36.381,-119.8369,21154  Elgin Avenue,Lemoore,Kings,93245,5F,#N/A,#N/A,#N/A,11800,2023,0,0,0,0,82,0,0,82,1,1,0
233761,Joe D. Coelho Dairy (closed),36.6407,-119.827,6503 South West Avenue,Fresno,Fresno,93706,5F,#N/A,#N/A,#N/A,10453,2023,0,0,0,0,0,0,0,0,2b,2b,0
233763,Da Silva Dairy Farms LLC #1,37.8545,-120.9748,27398 Dodds Road,Escalon,San Joaquin,95320,5S,#N/A,#N/A,#N/A,10454,2023,1500,227,200,0,100,0,0,2027,1,1,1
233766,Gordon Dairy #5,33.9923,-117.628,14400 South Grove Avenue,Ontario,San Bernardino,91710,8,#N/A,#N/A,#N/A,10455,2023,393,57,0,0,0,0,0,450,1,1,1
233772,Joe Gomes Dairy #1,37.4411,-120.799,17265 Swanson Road,Delhi,Merced,95315,5S,#N/A,#N/A,#N/A,10456,2023,438,1,152,84,0,0,0,675,1,1,1
233774,"Trimac Enterprises, LLC.",37.7802,-120.9462,29094 East Lemon Avenue,Escalon,San Joaquin,95320,5S,#N/A,#N/A,#N/A,10457,2023,0,0,0,0,0,0,0,0,2a,2a,0
233777,Homen Dairy Farms LP,37.1854,-120.5956,5511 West Sandy Mush Road,Merced,Merced,95340,5S,2023,NaN,DDRDP,10458,2023,2060,270,1050,930,390,300,0,5000,1,1,1
233778,Silva Joe I & Son Dairy,37.072027,-120.8755043,14944 South Badger Flat Road,Los Banos,Merced,93635,5S,#N/A,#N/A,#N/A,11953,2023,0,0,0,0,0,0,0,0,2a,2a,0
233779,John A Machado Dairy Farms,37.7307,-121.2153,24916 South Manteca Road,Manteca,San Joaquin,95336,5S,#N/A,#N/A,#N/A,10459,2023,1714,237,197,137,89,83,0,2457,1,1,1
233781,Sunshine Dairy Heifers (Former P&E Heifers),36.2876,-119.5839,12700  7th Avenue,Hanford,Kings,93230,5F,#N/A,#N/A,#N/A,11801,2023,0,0,0,0,0,0,0,0,1,1,0
233784,Eugenio Azevedo Dairy #1,37.2802,-120.5835,5217 Oak Avenue,Merced,Merced,95341,5S,#N/A,#N/A,#N/A,10460,2023,1135,95,340,300,200,0,0,2070,3a,3a,1
233788,Joe Simoes Family Dairy,36.0333,-119.2683,13441 Road 136,Tipton,Tulare,93272,5F,#N/A,#N/A,#N/A,10461,2023,1260,240,625,400,0,0,0,2525,3a,3a,1
233789,LEGENDAIRY FARMS,36.0567,-119.3599,14685 Road 96,Tipton,Tulare,93272,5F,2025,NaN,DDRDP,10462,2023,1414,190,358,0,0,0,0,1962,1,1,1
233792,Machado Brothers Dairy,36.1985,-119.6151,8800 Lansing Avenue,Hanford,Kings,93230,5F,#N/A,#N/A,#N/A,10463,2023,0,0,536,0,0,0,0,536,1,1,0
233796,Triple J Creek Dairy,37.1147,-120.894,22484 China Camp Road,Los Banos,Merced,93635,5S,#N/A,#N/A,#N/A,10464,2023,814,155,518,259,127,93,0,1966,1,1,1
233801,Parreira Dairy,36.2099,-119.7623,18081 17th Avenue,Stratford,Kings,93266,5F,#N/A,#N/A,#N/A,10465,2023,1755,204,706,633,156,0,0,3454,1,1,1
233803,Joe Pedro & Son Dairy,36.279,-119.3303,26946 Road 108,Visalia,Tulare,93291,5F,#N/A,#N/A,#N/A,10466,2023,0,200,400,136,64,0,0,800,1,1,0
233804,Joe V. Pimentel Dairy,36.4069,-119.5648,4625 6th Avenue,Hanford,Kings,93230,5F,#N/A,#N/A,#N/A,10467,2023,1293,170,184,361,0,295,0,2303,1,1,1
233805,Joe Pinheiro & Sons Dairy,36.043,-119.3039,13881 Road 120,Tipton,Tulare,93272,5F,#N/A,#N/A,#N/A,10468,2023,0,0,0,0,0,0,0,0,2a,2a,0
233812,Sozinho Dairy #1,36.3067,-119.6099,11447 8 1/2 Avenue,Hanford,Kings,93230,5F,#N/A,#N/A,#N/A,10469,2023,1200,190,350,750,275,375,0,3140,1,1,1
233814,Joe Tognalda Dairy,38.1817,-122.6108,460  San Antonio,Petaluma,Sonoma,94952,2,#N/A,#N/A,#N/A,11898,2023,0,0,0,0,0,0,0,0,2e,2e,0
233816,Shaffer Dairy,37.4056,-120.5923,5968 Eucalyptus Avenue,Winton,Merced,95388,5S,#N/A,#N/A,#N/A,10470,2023,0,0,0,0,0,0,0,0,1,1,0
233831,Johann Dairy,36.5724,-120.002,11511 West Floral Avenue,Fresno,Fresno,93706,5F,#N/A,#N/A,#N/A,10471,2023,4225,450,1600,1520,700,680,0,9175,1,1,1
233838,vacant DAIRY,36.3716,-119.8428,7155 21 1/2 Avenue,Lemoore,Kings,93245,5F,#N/A,#N/A,#N/A,10472,2023,0,0,0,0,0,0,0,0,2a,2b,0
233840,John & Natalie Toste,36.3802,-119.8435,21519 Elgin Avenue,Lemoore,Kings,93245,5F,#N/A,#N/A,#N/A,10473,2023,0,245,235,0,0,0,0,480,1,1,0
233841,Alston Dairy,39.7437,-122.1976,1010 Hwy 99W,Orland,Glenn,95963,5S,#N/A,#N/A,#N/A,10474,2023,0,0,0,0,0,0,0,0,2a,2e,0
233848,John Bootsma Dairy,33.8416,-117.0969,32300 Ramona Expressway,Lakeview,Riverside,92567,8,#N/A,#N/A,#N/A,10475,2023,1700,290,142,105,102,48,0,2387,1,1,1
233850,Dyt Heifer Ranch,33.9979,-117.6071,9064 Edison Avenue,Ontario,San Bernardino,91762,8,#N/A,#N/A,#N/A,10476,2023,0,0,0,0,0,0,0,0,2a,2a,0
233853,John & Teresa Borges Dairy,37.7229,-121.3219,25834 Kasson Road,Tracy,San Joaquin,95304,5S,#N/A,#N/A,#N/A,10477,2023,400,58,115,120,50,45,0,788,1,1,1
233854,Kerman Cattle Company,36.6721,-119.9695,4301 South Dickenson Avenue,Fresno,Fresno,93706,5F,#N/A,#N/A,#N/A,10478,2023,770,70,100,50,50,0,0,1040,1,1,1
233857,Bento Bovine Dairy,37.6084,-121.0962,5618 Paradise Road,Modesto,Stanislaus,95358,5S,#N/A,#N/A,#N/A,10479,2023,0,0,0,100,0,0,0,100,2a,3a,0
233859,John Correia Cattle,36.3147,-119.5763,6672  Hanford-Armona,Hanford,Kings,93230,5F,#N/A,#N/A,#N/A,11802,2023,0,0,0,0,0,0,0,0,1,1,0
233862,Parreira Gaspar Dairy,36.1298,-119.2117,16087 Avenue 188,Strathmore,Tulare,93267,5F,#N/A,#N/A,#N/A,10480,2023,0,0,0,511,236,0,0,747,1,1,0
233863,John DeGroot & Son Dairy,36.6468,-119.9048,6105 West Lincoln Avenue,Fresno,Fresno,93706,5F,#N/A,#N/A,#N/A,10481,2023,2789,401,835,1178,487,0,0,5690,1,1,1
233865,Cowlifornia Dairy LLC,36.3303,-119.5261,3742 Lacey Boulevard,Hanford,Kings,93230,5F,#N/A,#N/A,#N/A,10482,2023,1656,123,428,292,242,0,0,2741,1,1,1
233866,Former American Dairy,36.6549,-119.8906,5525 South Polk Avenue,Fresno,Fresno,93706,5F,#N/A,#N/A,#N/A,10483,2023,0,0,0,0,0,0,0,0,2b,2a,0
233872,FM Ranch #4,36.3432,-119.1607,18354 Avenue 304,Visalia,Tulare,93292,5F,#N/A,#N/A,#N/A,10484,2023,0,0,0,0,0,0,0,0,2a,2e,0
233873,Rainimade Dairy,36.3415,-119.7407,15739 Grangeville Boulevard,Hanford,Kings,93230,5F,#N/A,#N/A,#N/A,10485,2023,0,0,0,0,0,0,0,0,2c,2c,0
233874,J & M Dairy,38.3232,-121.4196,11910 Bruceville Road,Elk Grove,Sacramento,95757,5S,#N/A,#N/A,#N/A,10486,2023,300,60,65,0,0,0,0,425,1,1,1
233878,John Grizzle Feedlot,32.8476,-115.3286,2704  Webb Road,Holtville,Imperial,92250,7,#N/A,#N/A,#N/A,11860,2023,0,28,310,347,315,125,250,1375,1,1,0
233879,Silver Oak Heifer Ranch,36.10938,-119.11772,20332  Avenue 176,Porterville,Tulare,93257,5F,#N/A,#N/A,#N/A,11954,2023,0,0,0,0,0,0,0,0,2b,2b,0
233890,Jersey Creek Dairy,36.2569,-119.5471,14857 5th Avenue,Hanford,Kings,93230,5F,#N/A,#N/A,#N/A,10487,2023,665,89,250,95,75,0,0,1174,1,1,1
233891,Santa Anita Dairy,36.2408,-119.4445,5792 Avenue 248,Tulare,Tulare,93274,5F,#N/A,#N/A,#N/A,10488,2023,0,0,0,0,0,0,0,0,2b,2b,0
233892,Terra Linda Heifers,36.2079,-119.47584,23119  Road 44,Tulare,Tulare,93274,5F,#N/A,#N/A,#N/A,11955,2023,0,0,0,0,0,0,0,0,2a,2a,0
233894,MDF Feedlot,37.2875,-120.5971,25 South Quinley,Merced,Merced,95341,5S,#N/A,#N/A,#N/A,11698,2023,0,0,0,1460,990,980,0,3430,1,1,0
233895,Double Cross #7/Larry B. Peterson Dairy Farms #2,37.4097,-120.8659,20775 West American Avenue,Hilmar,Merced,95324,5S,#N/A,#N/A,#N/A,10489,2023,0,208,0,0,0,0,0,208,1,1,0
233901,John Machado Dairy,39.789447,-122.2275886,6230  County Rd 7,Orland,Glenn,95963,5S,#N/A,#N/A,#N/A,11956,2023,0,0,0,0,0,0,0,0,2a,3g,0
233909,Oostdam Dairy Heifer Ranch,33.813,-116.9877,1655 North Ramona Boulevard,San Jacinto,Riverside,92582,8,#N/A,#N/A,#N/A,10490,2023,0,0,99,101,0,0,0,200,1,1,0
233916,John Rocha Jr. Dairy,37.845861,-121.019946,23733 East Mariposa Road,Escalon,San Joaquin,95320,5S,#N/A,#N/A,#N/A,11957,2023,0,0,0,0,0,0,0,0,2a,3g,0
233927,Van Exel Dairy #3,38.1376,-121.408,7406 West Cotta Road,Lodi,San Joaquin,95242,5S,#N/A,#N/A,#N/A,10491,2023,375,0,0,600,0,0,0,975,3a,3a,1
233934,John Thomas Dairy,37.4491,-120.9692,10408 West Bradbury Road,Turlock,Stanislaus,95380,5S,#N/A,#N/A,#N/A,10492,2023,0,0,200,100,75,150,0,525,1,1,0
233936,Pereira Family Dairy,36.1755,-119.2337,21371 Road 152,Tulare,Tulare,93274,5F,#N/A,#N/A,#N/A,10493,2023,0,0,0,739,770,874,0,2383,2c,3a,0
233939,Teunissen Ranch #2,36.132,-119.501,18943 Road 32,Tulare,Tulare,93274,5F,#N/A,#N/A,#N/A,11767,2023,0,0,0,0,880,197,0,1077,1,1,0
233980,Johnson & Neles Dairy,38.2487,-122.4798,22030 Bonness Road,Sonoma,Sonoma,95476,2,#N/A,#N/A,#N/A,10494,2023,329,46,0,0,0,0,0,375,3a,3a,1
233996,Van Steyn Dairy #3,38.3232,-121.3948,8383 Lambert Road,Elk Grove,Sacramento,95758,5S,#N/A,#N/A,#N/A,10495,2023,0,0,0,0,0,0,0,0,2a,2b,0
234042,Maze Dairy,37.6353,-121.1318,7500 Maze Boulevard,Modesto,Stanislaus,95358,5S,#N/A,#N/A,#N/A,10496,2023,90,9,14,9,9,14,0,145,3a,3a,1
234045,GH Dairy #4,33.9976,-117.6291,8061 Edison Avenue,Ontario,San Bernardino,91762,8,#N/A,#N/A,#N/A,10497,2023,401,141,166,122,0,0,8,838,1,1,1
234050,Central Heifer Ranch,37.4531985,-120.9594092,4231  Central Avenue,Turlock,Stanislaus,95380,5S,#N/A,#N/A,#N/A,11958,2023,0,0,80,105,0,0,0,185,2c,3a,0
234052,Koolhaas Dairy #2,37.8269,-121.0067,24586 East Lone Tree Road,Escalon,San Joaquin,95320,5S,#N/A,#N/A,#N/A,10498,2023,280,36,150,105,0,0,0,571,1,1,1
234053,Manuel Mendonca Trustee,36.3414,-119.4846,9080 1 1/2 Avenue,Hanford,Kings,93230,5F,#N/A,#N/A,#N/A,10499,2023,0,0,0,0,4,0,30,34,2b,3f,0
234055,Jose L. Homem Dairy,40.9058,-124.1154,4002 Old River Road,Arcata,Humboldt,95521,1,#N/A,#N/A,#N/A,10500,2023,0,0,0,0,0,0,0,0,2c,2c,0
234057,Forebay Farms Dairy,37.0905,-120.9753,13699 South Cherokee Road,Gustine,Merced,95322,5S,#N/A,#N/A,#N/A,10501,2023,1223,102,0,0,0,0,0,1325,1,1,1
234058,Aguiar Dairy Feedlot,36.0663015,-119.1933446,16960  Avenue 152,Porterville,Tulare,93257,5F,#N/A,#N/A,#N/A,11959,2023,0,0,0,0,0,0,0,0,2a,3g,0
234059,Jose Ribeiro & Son Dairy,36.4312,-119.7311,3666 East Mt. Whitney Avenue,Laton,Fresno,93242,5F,#N/A,#N/A,#N/A,10502,2023,700,200,200,200,0,0,0,1300,1,1,1
234062,Joseph Gallo Farms Feed Lot,36.5334463,-121.4079654,31701  Johnson Canyon Rd,Gonzales,Monterey,93926,3,#N/A,#N/A,#N/A,11960,2023,0,0,0,0,0,0,0,0,2e,2e,0
234115,Julian Sanchez & Sons Dairy,36.1156,-119.3963,17945 Road 80,Tulare,Tulare,93274,5F,#N/A,#N/A,#N/A,10503,2023,0,50,0,30,25,15,0,120,2a,3a,0
234149,Tierra Buena Ranch,37.4309,-120.641,8632 Meadow Drive,Winton,Merced,95388,5S,#N/A,#N/A,#N/A,10504,2023,1385,210,0,0,390,545,0,2530,1,1,1
234150,JVJ Dairy #2 - Parkview Dairy,37.4104,-120.7406,13640 Collier Road,Delhi,Merced,95315,5S,#N/A,#N/A,#N/A,10505,2023,1600,250,1000,400,0,0,0,3250,1,1,1
234487,K & M Visser Dairy,35.961,-119.3658,9279 Avenue 96,Pixley,Tulare,93256,5F,2019,NaN,DDRDP,10506,2023,4104,682,2145,1369,414,546,0,9260,1,1,1
234552,Kaehler Dairy Farm,38.0865,-121.3035,1025 East Armstrong Road,Lodi,San Joaquin,95242,5S,#N/A,#N/A,#N/A,10507,2023,780,100,0,0,125,0,0,1005,1,1,1
234617,Kansas Holstein Dairy,36.2118,-119.6075,8480 Kansas Avenue,Hanford,Kings,93230,5F,#N/A,#N/A,#N/A,10508,2023,0,0,0,0,0,0,0,0,2a,2e,0
234639,Chino Valley Dairy #1,33.9903,-117.6396,7565 Eucalyptus Avenue,Ontario,San Bernardino,91762,8,#N/A,#N/A,#N/A,10509,2023,0,0,0,0,0,0,0,0,2a,2a,0
234725,"Keema, Edward",38.3519429,-121.4283194,6401  Eschinger Road,Elk Grove,Sacramento,95757,5S,#N/A,#N/A,#N/A,11961,2023,0,0,0,0,0,0,0,0,3g,3g,0
234732,Kehoe Dairy Inc. (J Ranch),38.16,-122.9377,6150 Pierce Pt,Inverness,Marin,95437,2,#N/A,#N/A,#N/A,10510,2023,263,37,167,120,70,43,0,700,1,1,1
234929,former CORREIA DAIRY,36.5024898,-119.435004,6211  Avenue 392,Dinuba,Tulare,93618,5F,#N/A,#N/A,#N/A,11962,2023,0,0,0,0,0,0,0,0,2a,2e,0
235020,Roy King Dairy,38.2395,-122.6922,1241 Middle Two Rock Road,Petaluma,Sonoma,94952,2,#N/A,#N/A,#N/A,10511,2023,48,7,42,30,17,11,0,155,1,1,1
235138,Sozinho Jerseys Dairy,36.401,-119.5392,4615 Excelsior Avenue,Hanford,Kings,93230,5F,#N/A,#N/A,#N/A,10512,2023,1050,95,130,100,100,0,0,1475,1,1,1
235150,Harry Kneppel Dairy,38.3014,-121.4144,7816 Camp Road,Elk Grove,Sacramento,95757,5S,#N/A,#N/A,#N/A,10513,2023,0,0,0,0,0,0,0,0,2a,2e,0
235180,L & J Vanderham Dairy,36.4317,-119.9896,10772 West Mt. Whitney Avenue,Riverdale,Fresno,93656,5F,2022,NaN,DDRDP,10514,2023,3767,780,151,0,0,0,0,4698,1,1,1
235211,Frank Konyn Dairy,33.0879,-116.9987,15777 Old Milky Way,Escondido,San Diego,92027,9,#N/A,#N/A,#N/A,10515,2023,880,130,380,280,213,102,0,1985,1,1,1
235213,Koolhaas Dairy,37.8568,-120.9827,26805 Dodds Road,Escalon,San Joaquin,95320,5S,#N/A,#N/A,#N/A,10516,2023,864,125,150,300,0,0,0,1439,1,1,1
235215,Archibald Ranch,34.0033,-117.5932,13838 South Archibald Avenue,Ontario,San Bernardino,91761,8,#N/A,#N/A,#N/A,10517,2023,0,0,0,0,0,0,800,800,2c,3a,0
235217,Kootstra Dairy,35.231,-118.9676,13628 Adobe Road,Bakersfield,Kern,93307,5F,#N/A,#N/A,#N/A,10518,2023,1200,220,200,0,0,0,0,1620,1,1,1
235270,LegenDairy West,36.0616,-119.382,8509 AVENUE 152,Tipton,Tulare,93272,5F,#N/A,#N/A,#N/A,10519,2023,2103,311,1088,962,0,0,0,4464,1,1,1
235283,Kuhn Farms Dairy/OWB Ranches,32.7877,-115.7613,1870-B  Jeffrey Road,El Centro,Imperial,92243,7,#N/A,#N/A,#N/A,11878,2023,0,9,102,114,103,40,82,450,1,1,0
235289,Standard Cattle Company,36.6153,-120.0996,8105A S  Lassen AVE,San Joaquin,Fresno,93660,5F,#N/A,#N/A,#N/A,11777,2023,0,0,4430,9645,6689,19044,0,39808,1,1,0
235626,Watte Bros Dairy #2 - CLOSED,36.1796,-119.4805,4125 Avenue 216,Tulare,Tulare,93274,5F,#N/A,#N/A,#N/A,10520,2023,0,0,0,0,0,0,0,0,2a,2b,0
235627,Four Family K Dairy (Vacant),36.2026,-119.4591,5147 Avenue 228,Tulare,Tulare,93274,5F,#N/A,#N/A,#N/A,10521,2023,0,0,0,0,0,0,0,0,2b,2b,0
235634,Double Oak Dairy,36.2541,-119.2963,3573 E Oakdale Ave,Tulare,Tulare,93274,5F,#N/A,#N/A,#N/A,10522,2023,1141,220,361,281,0,0,0,2003,1,1,1
235639,L & M Dairy 2,34.0045686,-117.5938564,13726 South Archibald Avenue,Ontario,San Bernardino,91761,8,#N/A,#N/A,#N/A,11963,2023,0,0,0,0,0,0,0,0,2a,2a,0
235647,John Verburg Dairy (Closed),36.6962,-119.8606,2588 South Brawley Avenue,Fresno,Fresno,93706,5F,#N/A,#N/A,#N/A,10523,2023,0,0,15,0,0,0,0,15,2b,3a,0
235679,LK Ranches Dairy,36.3162,-119.4502,29007 Road 56,Visalia,Tulare,93277,5F,#N/A,#N/A,#N/A,10524,2023,165,0,0,0,0,0,0,165,1,1,1
235683,R & J McClelland Dairy,38.1167,-122.9261,100 Pierce Point,Inverness,Marin,94937,2,#N/A,#N/A,#N/A,10525,2023,120,10,42,30,17,11,0,230,1,1,1
235689,L&J,33.998566,-117.627821,14049  Grove,Chino,San Bernardino,91762,8,#N/A,#N/A,#N/A,11964,2023,0,0,0,0,0,0,0,0,2e,3g,0
236073,Labrucherie Ranch,32.7577,-115.582,1407 S Labrucherie Road,El Centro,Imperial,92243,7,#N/A,#N/A,#N/A,11882,2023,0,215,2344,2624,2383,933,1890,10389,1,1,0
236113,Lafranchi Ranch,38.0821,-122.7086,6290 Nicasio Valley Rd.,Nicasio,Marin,94946,2,#N/A,#N/A,#N/A,10526,2023,492,68,104,75,44,27,0,810,1,1,1
236282,Former VL Furtado Dairy (demolished),36.4178,-119.5791,3855 7th Avenue,Hanford,Kings,93230,5F,#N/A,#N/A,#N/A,10527,2023,0,0,0,0,0,0,0,0,2a,2a,0
236534,Langerwerf Dairy,39.646,-121.7493,1251 Durham-Dayton,Durham,Butte,95922,5R,#N/A,#N/A,#N/A,11695,2023,0,0,0,0,0,0,0,0,3g,3g,0
236585,Bidart Dairy No. 3,35.3553,-119.2893,25820 Stockdale Highway,Bakersfield,Kern,93314,5F,2013,NaN,AgSTAR,10528,2023,1230,0,425,375,0,0,0,2030,1,1,1
236674,Lauren Duhalde Dairy,33.99,-117.5897,9859 Eucalyptus,Ontario,San Bernardino,91762,8,#N/A,#N/A,#N/A,10529,2023,0,0,0,0,0,0,0,0,2a,2a,0
236699,Frank C. Lawrence Dairy,36.306,-119.4541,28476 Road 52,Visalia,Tulare,93277,5F,#N/A,#N/A,#N/A,10530,2023,751,75,547,422,126,117,0,2038,1,1,1
236758,Leal Ranches,33.9804,-117.5645,12740 58th Street,Corona,Riverside,92880,8,#N/A,#N/A,#N/A,10531,2023,0,0,0,0,0,0,0,0,2a,2a,0
236809,Legend Dairy Farms 3 - Edison,33.9971,-117.5666,11091 Edison Avenue,Ontario,San Bernardino,91761,8,#N/A,#N/A,#N/A,10532,2023,0,0,0,0,0,0,0,0,2a,2a,0
236833,Lekkerkerk Dairy,33.966,-117.667,15779 Mountain Avenue,Chino,San Bernardino,91708,8,#N/A,#N/A,#N/A,10533,2023,0,0,0,0,0,0,0,0,2e,2e,0
236834,Lekkerkerk Dairy #2,33.9558,-117.6669,16195 Mountain Avenue,Chino,San Bernardino,91708,8,#N/A,#N/A,#N/A,10534,2023,0,0,0,0,0,0,0,0,2e,2e,0
236881,"Pareira Dairy, LP",37.4837,-120.5288,2487 West Turlock Road,Snelling,Merced,95369,5S,#N/A,#N/A,#N/A,10535,2023,600,100,180,300,100,100,0,1380,1,1,1
236885,Leonardo Bros Dairy,36.4961,-119.6942,16508 South Clovis Avenue,Selma,Fresno,93662,5F,#N/A,#N/A,#N/A,10536,2023,0,0,0,0,0,0,0,0,1,1,0
236892,Lepori Dairy,38.3092,-122.8724,6800 Gericke Road,Petaluma,Sonoma,94952,1,#N/A,#N/A,#N/A,10537,2023,114,16,46,34,17,8,0,235,1,1,1
236897,Lerda-Goni Farms Dairy,36.1321,-119.255,18797 Road 142,Tulare,Tulare,93274,5F,2024,NaN,DDRDP,10538,2023,750,100,250,250,100,0,0,1450,1,1,1
236919,Leveroni Brothers Dairy,38.1253,-122.641,3100 Novato Blvd,Novato,Marin,94947,2,#N/A,#N/A,#N/A,11688,2023,0,0,0,0,0,0,0,0,3g,3g,0
237015,Lima Ranch,38.0991,-121.3838,13436 North Thornton Road,Lodi,San Joaquin,95242,5S,#N/A,#N/A,#N/A,10539,2023,1480,220,600,495,220,0,0,3015,1,1,1
237287,Log Haven Dairy,36.3557,-119.595,7755 Fargo Avenue,Hanford,Kings,93230,5F,#N/A,#N/A,#N/A,10540,2023,0,0,150,100,0,0,0,250,1,1,0
237294,Luke McCanless Dairy #2 @ Coffee Creek,40.5724,-124.2232,2824 Grizzly Bluff Road,Ferndale,Humboldt,95536,1,#N/A,#N/A,#N/A,10541,2023,255,35,0,0,0,0,0,290,1,1,1
237321,Lone Oak Farms Dairy #1,36.2792,-119.531,13866 4th Avenue,Hanford,Kings,93230,5F,2021,NaN,DDRDP,10542,2023,4855,280,2515,1250,960,1115,0,10975,1,1,1
237326,"Jackson Dairy, LLC",36.2532,-119.6126,8637 Jackson Avenue,Hanford,Kings,93230,5F,#N/A,#N/A,#N/A,10543,2023,1087,87,195,0,677,0,0,2046,1,1,1
237349,High Roller Dairy,36.258,-119.6013,14782 8th Avenue,Hanford,Kings,93230,5F,2023,NaN,DDRDP,10544,2023,1828,195,855,650,273,0,0,3801,1,1,1
237361,A.M. Dairy,36.4946,-119.3794,8651 Avenue 388,Dinuba,Tulare,93618,5F,#N/A,#N/A,#N/A,10545,2023,850,150,80,0,0,0,0,1080,1,1,1
237387,John Lorenzo Dairy,36.1968,-119.4041,703 S. Palm St,Tulare,Tulare,93274,5F,#N/A,#N/A,#N/A,11768,2023,0,0,0,225,505,0,0,730,2c,3a,0
237463,Losa Dairy,40.585,-124.2131,199 Saottini Lane,Ferndale,Humboldt,95536,1,#N/A,#N/A,#N/A,10546,2023,246,34,29,21,34,16,0,380,1,1,1
237507,Lou-Mar Dairy,36.0659,-119.2402,14870 Avenue 152,Tipton,Tulare,93272,5F,#N/A,#N/A,#N/A,10547,2023,1905,282,986,710,0,0,0,3883,1,1,1
237517,Riverbend East Dairy,36.1582,-119.2603,20303 Road 140,Tulare,Tulare,93274,5F,#N/A,#N/A,#N/A,10548,2023,0,0,1389,0,2925,0,0,4314,1,1,0
237641,Lu/AR Dairy,36.3844,-119.7246,6121 15th Avenue,Hanford,Kings,93230,5F,#N/A,#N/A,#N/A,10549,2023,1000,0,0,0,0,0,0,1000,1,1,1
237643,Deer Creek Cattle,36.1226,-119.4368,6141 Avenue 184,Tulare,Tulare,93274,5F,#N/A,#N/A,#N/A,10550,2023,0,0,438,24,955,0,0,1417,1,1,0
237683,Luis C Nunes & Sons Dairy #2,37.1407,-121.0146,10268 South Hwy 33,Gustine,Merced,95322,5S,#N/A,#N/A,#N/A,10551,2023,545,80,415,240,230,180,0,1690,1,1,1
237684,Valley View Dairy #2,36.2548,-119.5451,15010 5th Avenue,Hanford,Kings,93230,5F,#N/A,#N/A,#N/A,10552,2023,0,0,123,107,0,0,0,230,1,1,0
237685,Raven Dairy,36.5036,-119.6239,9203 East Clarkson Avenue,Selma,Fresno,93662,5F,#N/A,#N/A,#N/A,10553,2023,0,0,0,0,0,0,0,0,2a,2e,0
237686,H & D Silveira Dairy,37.1475,-120.9479,25469 West Hearst Road,Gustine,Merced,95322,5S,#N/A,#N/A,#N/A,10554,2023,0,0,0,0,0,0,0,0,1,1,0
237694,Lumar Dairy Farms,37.4271,-120.9317,7215 South Prairie Flower Road,Turlock,Stanislaus,95380,5S,#N/A,#N/A,#N/A,10555,2023,1750,250,150,120,180,350,0,2800,1,1,1
238240,Sam Habib Cattle Co,36.4035,-119.5592,5590 East Excelsior Avenue,Hanford,Kings,93230,5F,#N/A,#N/A,#N/A,11803,2023,0,0,0,0,0,0,1000,1000,1,1,0
238879,M & A Dairy,37.0748,-120.6801,14651 Carlucci Road,Dos Palos,Merced,93620,5S,#N/A,#N/A,#N/A,10556,2023,453,72,144,286,0,0,0,955,1,1,1
238886,former M & E DAIRY,36.299432,-119.758019,16744  Houston Road,Lemoore,Kings,93245,5F,#N/A,#N/A,#N/A,11965,2023,0,0,0,0,0,0,0,0,2a,2e,0
238899,Tony Machado Dairy,37.0912,-120.2989,13611 Avenue 23 1/2,Chowchilla,Madera,93610,5F,#N/A,#N/A,#N/A,10557,2023,0,0,0,0,0,0,0,0,2a,2e,0
238904,M & M Moules Dairy,38.1035,-121.1554,12821 East Harney Lane,Lodi,San Joaquin,95240,5S,#N/A,#N/A,#N/A,10558,2023,0,0,5,3,0,0,0,8,1,1,0
238918,AC Enterprises Dairy,36.0704,-119.4137,15499 Road 72,Tipton,Tulare,93272,5F,#N/A,#N/A,#N/A,10559,2023,465,120,317,148,70,85,0,1205,1,1,1
238934,Curti Family Inc.,36.1473,-119.4999,3235 Avenue 199,Tulare,Tulare,93274,5F,#N/A,#N/A,#N/A,10560,2023,2600,300,1100,500,600,500,0,5600,1,1,1
238935,Curtimade Dairy,36.121,-119.5185,18337 Road 24,Tulare,Tulare,93274,5F,2026,NaN,DDRDP,10561,2023,3300,400,1100,1150,1000,800,0,7750,1,1,1
238974,Angelo Dairy,38.2209,-121.1787,11313 East Collier Road,Acampo,San Joaquin,95220,5S,#N/A,#N/A,#N/A,10562,2023,0,0,0,0,0,0,0,0,2a,2a,0
239002,Faria Feedlot,36.3085,-119.3726,2507 South Shirk Road,Visalia,Tulare,93277,5F,#N/A,#N/A,#N/A,10563,2023,0,0,0,0,0,0,0,0,1,1,0
239040,North Moon Dairy,36.0487,-119.4081,7325 Avenue 144,Tipton,Tulare,93273,5F,#N/A,#N/A,#N/A,10564,2023,769,0,0,0,0,0,0,769,1,1,1
239047,Machado Dairy LP,36.6756,-119.8738,4423 West Central Avenue,Fresno,Fresno,93706,5F,#N/A,#N/A,#N/A,10565,2023,0,0,0,0,0,0,0,0,2a,2e,0
239048,Machado Dairy,36.1554,-119.4911,20180 Road 36,Tulare,Tulare,93274,5F,#N/A,#N/A,#N/A,10566,2023,777,100,105,99,108,52,0,1241,1,1,1
239049,Machado Dairy Farms #2,37.8817,-121.0738,19405 East Mariposa Road,Stockton,San Joaquin,95215,5S,#N/A,#N/A,#N/A,10567,2023,500,100,640,1025,400,400,0,3065,1,1,1
239050,Machado Dairy Farms #1,37.7001,-121.2241,28128 South Two Rivers Road,Manteca,San Joaquin,95337,5S,#N/A,#N/A,#N/A,10568,2023,1100,0,0,0,0,0,0,1100,1,1,1
239061,F & S Brasil Dairy,37.718,-121.2326,26212 South Union Road,Manteca,San Joaquin,95337,5S,#N/A,#N/A,#N/A,10569,2023,360,0,0,0,0,0,0,360,1,1,1
239098,Maddox Dairy,36.5339,-120.0235,12840 West Kamm Avenue,Riverdale,Fresno,93656,5F,#N/A,#N/A,#N/A,10570,2023,3350,400,1300,1500,900,900,0,8350,1,1,1
239106,Madera Calf Ranch,36.9509,-120.1951,13894 Road 19 1/2,Madera,Madera,93637,5F,#N/A,#N/A,#N/A,11778,2023,0,0,0,0,3680,5290,0,8970,1,1,0
